City_ID,City,Country,Lat,Lng,Max Temp,Humidity,Cloudiness,Wind Speed,Current Description
0,Provideniya,RU,64.3833,-173.3,33.91,86,100,11.18,overcast clouds
1,Aracati,BR,-4.5617,-37.7697,76.6,78,100,4.59,light rain
2,Iquitos,PE,-3.7481,-73.2472,75.24,100,75,0.0,broken clouds
3,Butaritari,KI,3.0707,172.7902,81.45,72,15,14.14,few clouds
4,Port Alfred,ZA,-33.5906,26.891,63.18,89,4,5.01,clear sky
5,Bluff,NZ,-46.6,168.3333,57.79,73,56,14.83,broken clouds
6,Alta Floresta,BR,-9.8756,-56.0861,72.01,82,26,3.53,scattered clouds
7,Busselton,AU,-33.65,115.3333,68.11,57,100,7.81,overcast clouds
8,Punta Arenas,CL,-53.15,-70.9167,46.51,61,75,20.71,broken clouds
9,Fortuna,US,40.5982,-124.1573,51.66,73,75,10.36,broken clouds
10,Lebu,CL,-37.6167,-73.65,51.55,77,100,7.38,overcast clouds
11,Chandia,IN,23.65,80.7,93.04,37,0,4.47,clear sky
12,Takoradi,GH,4.8845,-1.7554,79.93,87,100,7.92,light rain
13,Mamburao,PH,13.25,120.6667,89.33,54,80,8.95,broken clouds
14,Poum,NC,-20.2333,164.0167,78.64,72,61,17.67,broken clouds
15,Rocha,UY,-34.4833,-54.3333,55.71,93,100,6.04,moderate rain
16,Namibe,AO,-15.1961,12.1522,72.39,65,83,9.4,broken clouds
17,Sur,OM,22.5667,59.5289,85.87,46,2,5.68,clear sky
18,Eirunepe,BR,-6.6603,-69.8736,72.86,99,100,1.23,overcast clouds
19,Barrow,US,71.2906,-156.7887,24.82,74,40,10.36,scattered clouds
20,Kavieng,PG,-2.5744,150.7967,85.24,69,100,14.05,overcast clouds
21,Ulladulla,AU,-35.35,150.4667,63.77,81,100,9.04,overcast clouds
22,Basco,PH,20.4487,121.9702,83.98,72,81,16.91,broken clouds
23,Hobart,AU,-42.8794,147.3294,61.27,67,0,6.91,clear sky
24,Nikolskoye,RU,59.7035,30.7861,48.09,71,73,6.06,broken clouds
25,Mar Del Plata,AR,-38.0023,-57.5575,54.88,78,40,11.99,scattered clouds
26,Albany,US,42.6001,-73.9662,53.89,44,0,4.43,clear sky
27,Vaini,TO,-21.2,-175.2,80.76,65,20,5.75,few clouds
28,Ilulissat,GL,69.2167,-51.1,17.62,62,12,1.14,few clouds
29,Codrington,AU,-38.2667,141.9667,66.79,55,99,1.43,overcast clouds
30,Ust-Nera,RU,64.5667,143.2,33.17,96,100,4.74,light snow
31,Hualmay,PE,-11.0964,-77.6139,64.06,85,0,6.98,clear sky
32,Luanda,AO,-8.8368,13.2343,74.26,88,82,4.72,broken clouds
33,Clyde River,CA,70.4692,-68.5914,11.61,65,0,6.55,clear sky
34,Qaanaaq,GL,77.484,-69.3632,10.33,73,0,7.31,clear sky
35,Sitka,US,57.0531,-135.33,44.49,70,100,11.5,light rain
36,Palmas De Monte Alto,BR,-14.2672,-43.1619,68.79,61,52,4.83,broken clouds
37,Gamba,GA,-2.65,10.0,76.93,93,69,5.64,broken clouds
38,Batagay,RU,67.6333,134.6333,27.23,64,95,6.62,overcast clouds
39,Orlik,RU,52.5178,99.825,34.16,37,97,5.01,overcast clouds
40,Fukue,JP,32.6881,128.8419,66.56,100,75,2.3,light rain
41,Nouadhibou,MR,20.931,-17.0347,64.98,92,85,14.41,overcast clouds
42,Charters Towers,AU,-20.1,146.2667,71.47,80,100,9.73,light rain
43,Walvis Bay,NA,-22.9575,14.5053,65.7,49,35,10.18,scattered clouds
44,Byron Bay,AU,-28.65,153.6167,65.71,79,100,15.05,light rain
45,Cape Town,ZA,-33.9258,18.4232,57.34,94,76,3.0,broken clouds
46,Ancud,CL,-41.8697,-73.8203,45.99,87,100,6.64,overcast clouds
47,Huarmey,PE,-10.0681,-78.1522,64.72,84,1,5.82,clear sky
48,Raduzhnyy,RU,62.0961,77.475,55.8,64,100,10.27,overcast clouds
49,Saskylakh,RU,71.9167,114.0833,25.65,92,100,1.5,light snow
50,Buraydah,SA,26.326,43.975,76.3,16,0,11.79,clear sky
51,Fonte Boa,BR,-2.4959,-66.2662,73.69,98,65,3.04,broken clouds
52,Mataura,NZ,-46.1927,168.8643,57.47,62,16,3.38,few clouds
53,Pevek,RU,69.7008,170.3133,30.45,76,30,9.69,scattered clouds
54,Severo-Kurilsk,RU,50.6789,156.125,36.66,97,100,10.38,light rain
55,Sept-Iles,CA,50.2001,-66.3821,40.05,77,26,1.01,scattered clouds
56,Champerico,GT,14.3,-91.9167,84.49,76,89,7.36,overcast clouds
57,Puerto Ayora,EC,-0.7393,-90.3518,71.55,95,16,1.01,few clouds
58,Yangambi,CD,0.8102,24.4336,69.67,99,100,1.57,overcast clouds
59,Lasa,IT,46.6166,10.7002,49.37,70,55,1.57,broken clouds
60,Arraial Do Cabo,BR,-22.9661,-42.0278,72.86,79,91,6.82,overcast clouds
61,Norman Wells,CA,65.282,-126.8329,43.75,64,100,6.8,overcast clouds
62,Oranjestad,AW,12.524,-70.027,80.94,84,100,23.78,overcast clouds
63,Hermanus,ZA,-34.4187,19.2345,59.81,81,92,14.65,overcast clouds
64,Rikitea,PF,-23.1203,-134.9692,77.07,69,19,15.57,few clouds
65,Zhigansk,RU,66.7697,123.3711,32.31,99,100,11.81,overcast clouds
66,Bowen,AU,-20.0167,148.2333,73.27,85,100,22.59,light rain
67,Wollongong,AU,-34.4333,150.8833,69.26,78,100,12.93,light rain
68,Darhan,MN,49.4867,105.9228,43.52,31,98,10.65,overcast clouds
69,New Norfolk,AU,-42.7826,147.0587,60.93,47,100,2.08,overcast clouds
70,Kavaratti,IN,10.5669,72.642,85.41,67,100,15.41,overcast clouds
71,Vidim,RU,56.4088,103.1106,48.13,34,51,7.65,broken clouds
72,Myaundzha,RU,63.0494,147.1858,33.44,100,100,12.91,light snow
73,Ushuaia,AR,-54.8,-68.3,46.06,66,20,2.3,few clouds
74,Dongying,CN,37.4564,118.4856,65.5,53,100,8.08,overcast clouds
75,Jimo,CN,36.3897,120.4622,68.68,50,100,4.74,moderate rain
76,Bredasdorp,ZA,-34.5322,20.0403,59.99,67,97,13.04,overcast clouds
77,Roald,NO,62.5833,6.1333,49.33,87,100,8.05,light rain
78,Newport,GB,51.5877,-2.9984,55.08,88,99,15.19,moderate rain
79,Rawson,AR,-43.3002,-65.1023,50.76,73,0,6.42,clear sky
80,Avarua,CK,-21.2078,-159.775,80.85,72,16,4.29,few clouds
81,Havre-Saint-Pierre,CA,50.2334,-63.5986,40.87,60,62,3.31,broken clouds
82,Hithadhoo,MV,-0.6,73.0833,84.42,73,93,14.27,overcast clouds
83,San Patricio,US,28.017,-97.5169,80.83,82,67,15.28,broken clouds
84,Baiao,BR,-2.7906,-49.6717,71.85,99,100,3.42,moderate rain
85,Jingcheng,CN,32.0142,120.2625,71.01,77,100,9.93,overcast clouds
86,Atuona,PF,-9.8,-139.0333,79.14,67,32,20.33,scattered clouds
87,Iqaluit,CA,63.7506,-68.5145,29.7,100,100,21.85,light snow
88,Upernavik,GL,72.7868,-56.1549,12.43,91,27,5.41,scattered clouds
89,Kilindoni,TZ,-7.9139,39.6668,80.26,72,0,17.98,clear sky
90,Jamestown,US,42.097,-79.2353,58.05,49,88,1.01,overcast clouds
91,Hilo,US,19.7297,-155.09,77.29,81,75,9.22,broken clouds
92,Quatre Cocos,MU,-20.2078,57.7625,77.09,79,86,10.25,overcast clouds
93,Haines Junction,CA,60.7522,-137.5108,37.11,85,100,3.47,overcast clouds
94,Itarema,BR,-2.9248,-39.9167,75.81,85,97,3.96,overcast clouds
95,Port Elizabeth,ZA,-33.918,25.5701,63.32,78,0,23.02,clear sky
96,Moron,AR,-34.6534,-58.6198,58.75,85,7,5.53,clear sky
97,Mataram,ID,-8.5833,116.1167,90.41,70,100,2.82,overcast clouds
98,Dikson,RU,73.5069,80.5464,28.81,85,100,20.89,light snow
99,Touros,BR,-5.1989,-35.4608,76.5,88,82,7.29,broken clouds
100,Guerrero Negro,MX,27.9769,-114.0611,60.08,78,1,18.5,clear sky
101,Dhidhdhoo,MV,6.8833,73.1,84.29,76,100,15.75,overcast clouds
102,Luau,AO,-10.7073,22.2247,61.66,69,10,4.32,clear sky
103,Seminole,US,28.7086,-81.2081,68.41,76,0,6.91,clear sky
104,Candolim,IN,15.5181,73.7626,86.0,74,100,9.22,moderate rain
105,Sovetskiy,RU,61.3614,63.5842,57.79,54,100,5.93,overcast clouds
106,Coihaique,CL,-45.5752,-72.0662,34.41,93,0,2.3,clear sky
107,Diu,IN,20.7141,70.9822,85.93,61,100,10.49,overcast clouds
108,Mahibadhoo,MV,3.7833,72.9667,84.52,77,100,16.2,overcast clouds
109,Albanel,CA,48.8832,-72.4487,53.74,46,87,9.22,overcast clouds
110,Cidreira,BR,-30.1811,-50.2056,63.54,95,100,3.09,light rain
111,Kasongo-Lunda,CD,-6.4667,16.8167,70.61,95,72,1.32,light rain
112,Yellowknife,CA,62.456,-114.3525,35.56,75,100,10.36,light snow
113,Mizunami,JP,35.3667,137.25,70.48,56,100,3.94,moderate rain
114,Allapalli,IN,19.4167,80.0667,88.07,55,100,5.41,overcast clouds
115,Castro,BR,-24.7911,-50.0119,58.53,96,100,3.33,overcast clouds
116,Kruisfontein,ZA,-34.0033,24.7314,58.77,70,1,16.98,clear sky
117,Taltal,CL,-25.4,-70.4833,59.52,84,38,2.42,scattered clouds
118,San Cristobal,VE,7.7669,-72.225,68.18,99,100,3.33,overcast clouds
119,Hayden,US,47.766,-116.7866,51.19,58,0,4.61,clear sky
120,Teguldet,RU,57.3064,88.1667,49.3,30,2,6.69,clear sky
121,Port Lincoln,AU,-34.7333,135.8667,63.01,59,0,9.13,clear sky
122,Kodiak,US,57.79,-152.4072,47.71,34,0,21.85,clear sky
123,Torbay,CA,47.6666,-52.7314,44.28,57,20,20.71,few clouds
124,Vestmannaeyjar,IS,63.4427,-20.2734,40.19,86,100,15.17,overcast clouds
125,Vila Do Maio,CV,15.1333,-23.2167,72.39,85,7,16.42,clear sky
126,Tuy Hoa,VN,13.0833,109.3,88.39,63,23,3.71,few clouds
127,Alofi,NU,-19.0595,-169.9187,75.09,88,100,10.36,overcast clouds
128,Turukhansk,RU,65.8167,87.9833,34.39,100,100,4.74,overcast clouds
129,Nuqui,CO,5.7125,-77.2708,76.91,93,100,4.07,moderate rain
130,Vilela,PT,41.2251,-7.6034,55.04,38,25,2.57,scattered clouds
131,Georgetown,MY,5.4112,100.3354,85.93,54,20,2.3,few clouds
132,Palmer,US,42.1584,-72.3287,51.4,46,0,6.91,clear sky
133,Bethel,US,41.3712,-73.414,57.29,23,0,6.91,clear sky
134,Luderitz,NA,-26.6481,15.1594,56.91,60,34,9.22,scattered clouds
135,Khatanga,RU,71.9667,102.5,23.22,84,12,14.09,few clouds
136,Ostrovnoy,RU,68.0531,39.5131,39.02,84,69,16.64,broken clouds
137,Puyo,EC,-1.4667,-77.9833,65.55,96,26,2.77,light rain
138,Olkhovka,RU,53.2115,60.6069,47.25,85,100,14.72,overcast clouds
139,San Borja,BO,-14.8167,-66.85,70.83,98,79,2.21,broken clouds
140,Ashqelon,IL,31.6693,34.5715,58.89,62,72,3.89,broken clouds
141,Chuy,UY,-33.6971,-53.4616,58.87,94,100,7.63,overcast clouds
142,Carnarvon,AU,-24.8667,113.6333,84.27,32,99,10.36,overcast clouds
143,Ponta Do Sol,PT,32.6667,-17.1,66.13,49,0,3.74,clear sky
144,Bereznik,RU,62.8551,42.7072,41.32,62,0,2.91,clear sky
145,Kapaa,US,22.0752,-159.319,82.38,75,75,14.97,broken clouds
146,Vila Velha,BR,-20.3297,-40.2925,69.75,94,40,1.14,scattered clouds
147,Suba,PH,10.8438,121.0102,84.07,72,13,7.4,few clouds
148,Merke,KZ,42.8728,73.1786,61.02,83,77,3.78,light rain
149,Brae,GB,60.3964,-1.353,47.52,84,100,22.17,overcast clouds
150,Auki,SB,-8.7676,160.7034,85.39,70,100,4.68,overcast clouds
151,Mae Hong Son,TH,19.3003,97.9685,82.54,78,75,2.3,broken clouds
152,Zigong,CN,29.3416,104.7769,67.96,94,100,9.01,overcast clouds
153,Mount Gambier,AU,-37.8333,140.7667,65.26,55,43,3.76,scattered clouds
154,Hambantota,LK,6.1241,81.1185,84.79,71,87,21.79,overcast clouds
155,Tuktoyaktuk,CA,69.4541,-133.0374,31.39,88,100,9.98,overcast clouds
156,Tiksi,RU,71.6872,128.8694,24.57,77,24,5.44,few clouds
157,Katsuura,JP,35.1333,140.3,66.72,70,94,6.13,overcast clouds
158,Tulu Bolo,ET,8.6667,38.2167,59.43,65,4,3.53,clear sky
159,Filadelfia,US,39.9523,-75.1638,60.87,42,40,6.91,scattered clouds
160,Fort Nelson,CA,58.8053,-122.7002,47.79,46,75,9.22,broken clouds
161,Paka,MY,4.6374,103.4368,85.93,79,40,6.91,scattered clouds
162,Saint Anthony,US,45.0205,-93.218,73.02,40,0,10.36,clear sky
163,Victoria,HK,22.2855,114.1577,78.85,96,100,11.01,moderate rain
164,Lavrentiya,RU,65.5833,-171.0,33.8,95,65,7.4,broken clouds
165,Ahipara,NZ,-35.1667,173.1667,62.71,44,0,12.26,clear sky
166,Souillac,MU,-20.5167,57.5167,71.98,94,20,5.75,few clouds
167,Bathsheba,BB,13.2167,-59.5167,81.21,78,40,17.27,scattered clouds
168,Smidovich,RU,48.6,133.8167,66.81,24,93,19.24,overcast clouds
169,Bambous Virieux,MU,-20.3428,57.7575,77.22,77,94,10.94,overcast clouds
170,Ketchikan,US,55.3422,-131.6461,40.98,93,100,10.36,moderate rain
171,Nanortalik,GL,60.1432,-45.2371,34.61,92,95,7.45,overcast clouds
172,Vardo,NO,70.3705,31.1107,37.38,100,100,11.5,overcast clouds
173,Geraldton,AU,-28.7667,114.6,72.01,64,75,6.91,broken clouds
174,Hofn,IS,64.2539,-15.2082,38.84,60,100,21.72,overcast clouds
175,Gat,IL,31.61,34.7642,68.4,52,64,3.65,broken clouds
176,Mahebourg,MU,-20.4081,57.7,77.25,94,20,5.75,few clouds
177,Rio Gallegos,AR,-51.6226,-69.2181,41.05,65,20,10.36,few clouds
178,Rochegda,RU,62.8,43.25,40.84,63,4,2.04,clear sky
179,Aksarka,RU,66.5606,67.7975,29.26,93,100,9.42,overcast clouds
180,Hasaki,JP,35.7333,140.8333,75.29,71,100,5.99,overcast clouds
181,Leningradskiy,RU,69.3833,178.4167,34.93,96,9,2.64,clear sky
182,Klaksvik,FO,62.2266,-6.589,43.72,89,9,7.9,clear sky
183,Komsomolskiy,UZ,40.4272,71.7189,68.72,60,50,4.61,scattered clouds
184,Chahal,GT,15.75,-89.5667,73.11,93,50,4.14,scattered clouds
185,Muzhi,RU,65.3667,64.6667,34.74,93,71,3.89,broken clouds
186,Amposta,ES,40.7131,0.581,60.22,72,79,5.32,broken clouds
187,Tabas,IR,33.5959,56.9244,77.85,14,0,2.06,clear sky
188,Kiruna,SE,67.8557,20.2251,34.72,100,100,3.44,light rain
189,Viesite,LV,56.3475,25.5551,45.32,71,100,7.52,overcast clouds
190,Kaitangata,NZ,-46.2817,169.8464,56.8,62,17,6.8,few clouds
191,Santiago Del Estero,AR,-27.7951,-64.2615,66.79,61,27,4.5,scattered clouds
192,Waycross,US,31.2136,-82.354,60.85,77,0,0.0,clear sky
193,Narsaq,GL,60.9167,-46.05,43.02,91,99,4.59,overcast clouds
194,Nizhniy Ingash,RU,56.2,96.53,50.38,28,4,2.82,clear sky
195,Chapais,CA,49.7834,-74.8492,58.78,41,2,13.0,clear sky
196,Buala,SB,-8.145,159.5921,84.42,74,99,7.96,overcast clouds
197,Inhambane,MZ,-23.865,35.3833,65.5,91,0,5.48,clear sky
198,Guilin,CN,25.2819,110.2864,75.31,71,68,7.67,broken clouds
199,Airai,TL,-8.9266,125.4092,75.42,49,79,1.86,broken clouds
200,Talara,PE,-4.5772,-81.2719,66.09,84,22,13.27,few clouds
201,Esperance,AU,-33.8667,121.9,71.22,32,90,13.94,overcast clouds
202,Cherskiy,RU,68.75,161.3,27.79,80,100,5.3,overcast clouds
203,Tecoanapa,MX,16.5167,-98.75,81.07,73,53,3.47,broken clouds
204,San Quintin,MX,30.4833,-115.95,59.43,71,95,23.04,overcast clouds
205,Keflavik,IS,64.0049,-22.5624,37.31,87,75,14.97,broken clouds
206,Xixiang,CN,35.1628,112.865,68.43,59,100,11.3,overcast clouds
207,Namatanai,PG,-3.6667,152.4333,85.82,66,62,10.58,broken clouds
208,Benghazi,LY,32.1167,20.0667,62.46,70,25,8.28,scattered clouds
209,Yima,CN,34.7381,111.8839,65.44,56,100,12.03,overcast clouds
210,Rio Claro,BR,-22.4114,-47.5614,61.39,83,69,1.54,broken clouds
211,Vostok,RU,46.4856,135.8833,70.12,20,100,5.91,overcast clouds
212,Kroya,ID,-7.6331,109.2461,86.41,72,17,2.82,few clouds
213,Xining,CN,36.6167,101.7667,58.77,48,13,3.24,few clouds
214,Bitung,ID,1.4451,125.1824,88.65,78,90,10.63,overcast clouds
215,Manaus,BR,-3.1019,-60.025,79.3,83,0,4.61,clear sky
216,Amiens,FR,49.9,2.3,53.04,90,23,5.19,few clouds
217,Miguel Hidalgo,MX,19.4225,-99.2028,71.58,35,40,11.5,scattered clouds
218,General Pico,AR,-35.6566,-63.7568,54.61,85,20,7.09,few clouds
219,Kukuna,SL,9.4,-12.6667,77.81,85,28,4.12,scattered clouds
220,Sabang,ID,5.8933,95.3214,84.65,73,100,12.71,overcast clouds
221,Athabasca,CA,54.7169,-113.2854,37.81,65,54,3.69,broken clouds
222,Zyryanka,RU,65.75,150.85,29.05,93,100,10.36,light snow
223,Riyadh,SA,24.6877,46.7219,77.14,16,0,8.19,clear sky
224,Naze,JP,28.3667,129.4833,71.38,73,100,2.33,overcast clouds
225,Valparaiso,CL,-33.0393,-71.6273,57.47,88,100,6.91,fog
226,Priargunsk,RU,50.3691,119.1012,41.72,32,100,14.7,light rain
227,Fairview,US,40.8126,-73.999,60.48,43,0,10.36,clear sky
228,Forbes,AU,-33.3833,148.0167,61.2,79,100,10.74,moderate rain
229,Altamira,BR,-3.2033,-52.2064,71.76,99,95,2.73,overcast clouds
230,Whitianga,NZ,-36.8333,175.7,60.03,54,33,10.87,scattered clouds
231,Comodoro Rivadavia,AR,-45.8667,-67.5,39.06,81,0,4.61,clear sky
232,Lethem,GY,3.3803,-59.7968,76.51,84,35,6.73,scattered clouds
233,Longyearbyen,SJ,78.2186,15.6401,15.64,79,20,6.91,few clouds
234,Talnakh,RU,69.4865,88.3972,24.21,78,63,8.3,broken clouds
235,Nuuk,GL,64.1835,-51.7216,30.81,100,100,9.22,overcast clouds
236,Namtsy,RU,62.7161,129.6658,36.54,47,1,7.96,clear sky
237,Westport,US,41.1415,-73.3579,57.74,29,0,11.5,clear sky
238,Koumac,NC,-20.5667,164.2833,80.82,62,78,9.64,broken clouds
239,Jalu,LY,29.0331,21.5482,66.47,42,50,8.68,scattered clouds
240,Poso,ID,-1.3959,120.7524,87.84,59,98,1.74,overcast clouds
241,Sao Jose Da Coroa Grande,BR,-8.8978,-35.1478,76.05,84,44,5.61,scattered clouds
242,Dunedin,NZ,-45.8742,170.5036,57.51,51,14,0.54,few clouds
243,Bereda,ES,43.2686,-7.5406,52.41,92,45,1.72,scattered clouds
244,Halifax,CA,44.6453,-63.5724,41.68,73,1,6.91,clear sky
245,Faanui,PF,-16.4833,-151.75,82.98,72,11,18.3,few clouds
246,Chokurdakh,RU,70.6333,147.9167,16.59,89,95,7.85,overcast clouds
247,Makasar,ID,-5.14,119.4221,87.85,74,20,3.44,few clouds
248,Kapuskasing,CA,49.4169,-82.4331,62.69,94,75,10.36,broken clouds
249,Muros,ES,42.7762,-9.0603,55.17,90,44,2.95,scattered clouds
250,Bengkulu,ID,-3.8004,102.2655,82.0,71,100,3.27,overcast clouds
251,Palana,RU,59.1167,159.9667,37.63,79,19,9.35,few clouds
252,Inuvik,CA,68.3499,-133.7218,32.86,80,100,9.22,overcast clouds
253,Kholm,RU,59.2667,32.85,42.15,74,3,4.16,clear sky
254,Unity,CA,52.4501,-109.1682,43.25,63,88,9.62,overcast clouds
255,Marystown,CA,47.1666,-55.1483,37.85,100,47,5.37,scattered clouds
256,Teutonia,BR,-29.4481,-51.8064,62.76,97,99,1.41,overcast clouds
257,Ridgecrest,US,35.6225,-117.6709,55.26,23,20,21.85,few clouds
258,Aripuana,BR,-9.1667,-60.6333,74.35,89,99,0.49,overcast clouds
259,Kanniyakumari,IN,8.0833,77.5667,84.56,73,90,25.3,overcast clouds
260,Petropavlovsk-Kamchatskiy,RU,53.0452,158.6483,54.19,41,40,13.42,scattered clouds
261,Huntsville,US,34.7304,-86.5861,71.2,80,0,1.99,clear sky
262,Golden,US,39.7555,-105.2211,61.07,40,40,3.44,scattered clouds
263,Akyab,MM,20.15,92.9,77.88,89,100,5.61,overcast clouds
264,Atar,MR,20.5169,-13.0499,85.5,22,4,9.22,clear sky
265,Freiberg,DE,50.9167,13.3667,62.35,74,100,9.8,overcast clouds
266,Egvekinot,RU,66.3167,-179.1667,31.28,100,100,4.34,overcast clouds
267,Aswan,EG,24.0934,32.907,78.42,19,44,12.91,scattered clouds
268,Quelimane,MZ,-17.8786,36.8883,67.95,94,20,3.44,few clouds
269,Matay,EG,28.419,30.7792,68.4,46,37,10.13,scattered clouds
270,Vagur,FO,61.4732,-6.8119,45.34,87,100,6.26,overcast clouds
271,Chernyshevskiy,RU,63.0128,112.4714,42.91,74,43,9.75,scattered clouds
272,Tuatapere,NZ,-46.1333,167.6833,57.2,59,62,1.61,broken clouds
273,Kudahuvadhoo,MV,2.6708,72.8944,84.36,76,100,16.44,overcast clouds
274,Lagoa,PT,39.05,-27.9833,58.42,70,100,18.77,overcast clouds
275,Cootamundra,AU,-34.65,148.0333,62.94,65,100,17.85,light rain
276,Marovoay,MG,-16.1,46.6333,65.34,72,0,3.11,clear sky
277,Ako,JP,34.75,134.4,65.44,83,100,6.08,overcast clouds
278,Visnes,NO,59.3556,5.2242,49.82,87,75,16.11,broken clouds
279,Ko Samui,TH,9.5357,99.9357,84.11,84,20,6.91,few clouds
280,Nzega,RW,-2.479,29.5564,54.86,94,100,3.76,overcast clouds
281,Grindavik,IS,63.8424,-22.4338,37.35,87,75,14.97,broken clouds
282,Banda Aceh,ID,5.5577,95.3222,86.85,66,89,8.81,moderate rain
283,East London,ZA,-33.0153,27.9116,63.54,72,0,17.27,clear sky
284,Manggar,ID,-2.8833,108.2667,87.33,66,53,2.46,broken clouds
285,Samarai,PG,-10.6167,150.6667,85.84,74,100,16.62,overcast clouds
286,Antofagasta,CL,-23.65,-70.4,60.08,85,26,1.3,scattered clouds
287,Neiafu,TO,-18.65,-173.9833,81.28,78,75,4.61,broken clouds
288,Honningsvag,NO,70.9821,25.9704,37.15,87,100,8.05,overcast clouds
289,Sao Paulo Do Potengi,BR,-5.895,-35.7628,75.31,96,67,4.43,broken clouds
290,Ise,JP,34.4833,136.7,65.52,72,100,6.4,light rain
291,La Paz,BO,-16.5,-68.15,44.58,100,75,10.36,fog
292,Liangxiang,CN,39.7319,116.14,70.86,15,83,7.72,broken clouds
293,Taoudenni,ML,22.6783,-3.9836,85.57,9,2,3.06,clear sky
294,Puerto Escondido,MX,15.85,-97.0667,83.23,69,75,2.3,broken clouds
295,Jaca,ES,42.569,-0.5499,52.99,84,14,4.29,few clouds
296,Lagos,NG,6.5833,3.75,80.92,92,63,1.19,broken clouds
297,Nogliki,RU,51.8333,143.1667,36.91,95,64,13.78,broken clouds
298,Ugoofaaru,MV,5.6667,73.0,84.25,76,100,16.42,overcast clouds
299,Port-Cartier,CA,50.0334,-66.8654,39.42,87,23,4.09,few clouds
300,Flinders,AU,-34.5833,150.8552,69.39,73,100,5.01,light rain
301,Pangai,TO,-19.8,-174.35,78.91,65,75,6.91,broken clouds
302,Panaba,MX,21.2833,-88.2667,78.67,79,0,11.99,clear sky
303,Saint-Philippe,RE,-21.3585,55.7679,72.1,78,5,4.23,clear sky
304,Christchurch,NZ,-43.5333,172.6333,61.41,58,4,4.61,clear sky
305,Skjervoy,NO,70.0311,20.9714,33.8,83,87,7.47,overcast clouds
306,Gewane,ET,10.1664,40.6453,80.19,46,3,4.03,clear sky
307,Cap Malheureux,MU,-19.9842,57.6142,77.47,78,40,1.99,scattered clouds
308,Hovd,MN,48.0056,91.6419,43.86,26,0,10.33,clear sky
309,Tasiilaq,GL,65.6145,-37.6368,24.96,89,100,11.81,overcast clouds
310,Sena Madureira,BR,-9.0656,-68.6569,72.81,98,100,0.51,overcast clouds
311,Snasa,NO,64.2457,12.3778,43.21,94,100,3.94,light rain
312,Zunyi,CN,27.6867,106.9072,60.62,95,100,6.49,overcast clouds
313,Warwick,US,41.7001,-71.4162,51.06,58,0,12.66,clear sky
314,Kavadarci,MK,41.4331,22.0119,50.32,88,8,1.05,clear sky
315,Ust-Uda,RU,54.1742,103.0304,45.73,33,67,8.5,broken clouds
316,Pacific Grove,US,36.6177,-121.9166,53.71,74,0,13.0,clear sky
317,Gushikawa,JP,26.3544,127.8686,80.19,86,75,12.66,light intensity drizzle
318,Yaan,NG,7.3833,8.5667,74.91,86,92,4.88,overcast clouds
319,Bottrop,DE,51.5167,6.9167,62.71,71,95,1.99,overcast clouds
320,Redlands,US,34.0556,-117.1825,60.46,44,0,10.36,clear sky
321,Fairbanks,US,64.8378,-147.7164,43.61,74,100,14.97,overcast clouds
322,Farafangana,MG,-22.8167,47.8333,67.32,76,0,10.04,clear sky
323,Sorland,NO,67.667,12.6934,42.66,96,100,13.31,overcast clouds
324,Dauphin,CA,51.1494,-100.0502,46.54,76,0,13.8,clear sky
325,Yulara,AU,-25.2406,130.9889,67.84,28,98,9.22,overcast clouds
326,Nabire,ID,-3.3667,135.4833,85.96,68,68,4.29,light rain
327,Hegang,CN,47.4,130.3667,59.79,54,100,20.45,overcast clouds
328,Qandala,SO,11.472,49.8728,82.87,55,0,1.1,clear sky
329,Sambava,MG,-14.2667,50.1667,72.64,90,81,3.33,light rain
330,Saint-Augustin,CA,51.226,-58.6502,45.18,60,40,13.47,scattered clouds
331,Montrose,US,38.4166,-108.2673,58.57,24,14,17.22,few clouds
332,Ambanja,MG,-13.6833,48.45,71.53,93,18,3.44,few clouds
333,Tatawin,TN,32.9297,10.4518,57.6,85,0,4.74,clear sky
334,Badou,TG,7.5833,0.6,74.53,91,100,2.37,light rain
335,Kirakira,SB,-10.4544,161.9205,84.27,74,100,6.4,overcast clouds
336,Salalah,OM,17.0151,54.0924,78.89,50,0,2.3,clear sky
337,Sioux Lookout,CA,50.1001,-91.917,53.67,47,20,5.75,few clouds
338,Mora,CM,11.0461,14.1401,88.79,39,100,6.76,overcast clouds
339,Catuday,PH,16.2923,119.8062,84.49,66,32,7.34,scattered clouds
340,Cuenca,EC,-2.8833,-78.9833,55.53,100,90,2.3,overcast clouds
341,Ucluelet,CA,48.9329,-125.5528,50.09,79,85,4.45,overcast clouds
342,Berdigestyakh,RU,62.0989,126.6992,35.65,70,100,8.23,overcast clouds
343,Olafsvik,IS,64.8945,-23.7142,34.81,97,100,23.98,snow
344,Paks,HU,46.6265,18.8596,55.27,71,16,4.29,few clouds
345,Makungu,TZ,-8.7333,35.2833,57.65,98,16,2.13,few clouds
346,Broken Hill,AU,-31.95,141.4333,56.46,94,100,12.5,overcast clouds
347,Shingu,JP,33.7333,135.9833,63.77,83,100,7.16,light rain
348,Diego De Almagro,CL,-26.3667,-70.05,59.95,40,0,1.32,clear sky
349,Lompoc,US,34.6391,-120.4579,53.02,68,0,14.97,haze
350,Santa Cruz Cabralia,BR,-16.2781,-39.0247,70.03,94,20,3.44,few clouds
351,Sola,VU,-13.8833,167.55,81.27,83,100,13.8,overcast clouds
352,Salsomaggiore Terme,IT,44.8148,9.9796,61.92,76,10,5.77,clear sky
353,Dunhua,CN,43.3725,128.2425,50.86,71,100,10.87,overcast clouds
354,Biak,ID,-0.9131,122.8766,79.3,85,100,5.97,overcast clouds
355,Coos Bay,US,43.3665,-124.2179,51.93,82,40,9.22,scattered clouds
356,Northam,GB,51.0333,-4.2167,52.61,93,100,13.47,moderate rain
357,Cairns,AU,-16.9167,145.7667,80.55,81,75,13.8,broken clouds
358,Singaparna,ID,-7.3515,108.111,85.66,66,33,3.49,scattered clouds
359,Wanning,CN,18.8003,110.3967,85.68,71,99,11.99,overcast clouds
360,Alekseyevka,RU,50.6309,38.6903,38.89,97,100,14.29,light rain
361,Alice Springs,AU,-23.7,133.8833,69.35,32,1,8.05,clear sky
362,Ballina,AU,-28.8667,153.5667,66.38,75,100,15.59,moderate rain
363,Vestmanna,FO,62.1564,-7.1664,41.92,93,100,8.05,overcast clouds
364,Thompson,CA,55.7435,-97.8558,50.16,71,100,8.05,overcast clouds
365,Katobu,ID,-4.9408,122.5276,85.78,70,95,0.36,overcast clouds
366,North Platte,US,41.1239,-100.7654,67.12,60,0,15.01,clear sky
367,Jinchang,CN,38.4953,102.1739,67.28,27,38,6.98,scattered clouds
368,Yumen,CN,40.2833,97.2,73.02,12,43,10.31,scattered clouds
369,Kasese,UG,0.1833,30.0833,66.43,84,53,3.67,broken clouds
370,Beringovskiy,RU,63.05,179.3167,36.75,94,100,9.69,overcast clouds
371,Saldanha,ZA,-33.0117,17.9442,55.45,91,59,4.21,broken clouds
372,Santiago,CL,-33.4569,-70.6483,70.99,48,100,5.75,overcast clouds
373,Paita,PE,-5.0892,-81.1144,66.04,80,14,12.12,few clouds
374,Nan,TH,18.8333,100.6667,80.62,78,20,5.75,few clouds
375,Asadabad,IR,34.7824,48.1185,42.75,51,0,4.74,clear sky
376,Orcopampa,PE,-15.2661,-72.3417,43.7,65,4,0.49,clear sky
377,Argelia,CO,2.2556,-77.2488,66.74,99,100,1.88,moderate rain
378,Husavik,IS,66.0449,-17.3389,31.35,96,100,10.78,light snow
379,Dale,US,38.1689,-86.99,77.18,78,100,4.61,overcast clouds
380,Cap-Aux-Meules,CA,47.3821,-61.8597,42.82,56,10,9.22,clear sky
381,Mackay,AU,-21.15,149.2,73.69,93,100,21.43,light rain
382,Houma,US,29.5958,-90.7195,75.0,86,0,4.61,clear sky
383,Chicama,PE,-7.8447,-79.1469,61.34,79,9,4.97,clear sky
384,Alekseyevsk,RU,57.8406,108.3492,47.1,44,82,5.61,broken clouds
385,Thibodaux,US,29.7958,-90.8229,75.18,87,0,7.18,clear sky
386,San Juan De Colon,VE,8.0313,-72.2605,69.39,96,100,4.27,overcast clouds
387,Lata,PT,40.1629,-8.3327,51.98,70,7,1.12,clear sky
388,Sao Joao Da Barra,BR,-21.6403,-41.0511,68.25,93,8,5.53,clear sky
389,Morgan Hill,US,37.1305,-121.6544,53.33,54,0,11.5,clear sky
390,Ulaanbaatar,MN,47.9077,106.8832,37.53,30,40,13.42,scattered clouds
391,Pierre,US,44.3683,-100.351,63.86,50,0,7.0,clear sky
392,Kalmunai,LK,7.4167,81.8167,84.88,65,78,5.21,broken clouds
393,Semkhoz,RU,56.2833,38.0667,40.64,66,100,11.12,overcast clouds
394,Foumban,CM,5.7291,10.9001,63.88,95,100,2.28,overcast clouds
395,Dixon,US,38.4455,-121.8233,54.99,58,0,5.75,clear sky
396,Gopalpur,IN,19.2667,84.9167,84.76,73,59,14.2,broken clouds
397,Torata,PE,-17.0769,-70.8433,57.45,46,0,2.62,clear sky
398,Gornopravdinsk,RU,60.05,69.9,58.55,49,100,9.86,overcast clouds
399,Burnie,AU,-41.0667,145.9167,60.1,78,100,9.53,overcast clouds
400,Adrar,MR,20.5022,-10.0711,82.8,11,11,10.94,few clouds
401,Taywarah,AF,33.35,64.4167,56.5,29,0,2.1,clear sky
402,Shimoda,JP,34.6667,138.95,68.36,57,100,9.17,overcast clouds
403,Zapolyarnyy,RU,69.4154,30.8136,36.68,100,98,2.53,overcast clouds
404,Kahului,US,20.8947,-156.47,80.62,67,40,26.46,scattered clouds
405,Mont-Joli,CA,48.5839,-68.1921,56.7,35,0,17.27,clear sky
406,Deputatskiy,RU,69.3,139.9,16.09,68,91,5.7,overcast clouds
407,Keti Bandar,PK,24.1447,67.4497,84.13,70,0,15.01,clear sky
408,Marsh Harbour,BS,26.5412,-77.0636,73.35,65,89,15.5,overcast clouds
409,Kadoma,JP,34.7333,135.5833,75.18,47,75,9.22,broken clouds
410,Tiarei,PF,-17.5333,-149.3333,84.22,76,35,17.31,scattered clouds
411,Kuah,MY,6.3265,99.8432,78.78,94,40,2.3,scattered clouds
412,Viedma,AR,-40.8135,-62.9967,49.3,80,0,5.73,clear sky
413,Ranong,TH,9.9658,98.6348,85.93,70,92,2.15,overcast clouds
414,Mayo,US,38.8876,-76.5119,61.39,62,0,3.44,clear sky
415,Coahuayana,MX,18.7333,-103.6833,73.87,88,71,1.7,broken clouds
416,Usevya,TZ,-7.1,31.2333,68.45,73,93,5.7,overcast clouds
417,Petropavlovka,RU,50.6114,105.3196,43.9,29,100,11.77,overcast clouds
418,Chupa,RU,66.27,33.0549,45.41,80,100,7.78,overcast clouds
419,Dunyapur,PK,29.7995,71.7196,102.54,10,0,12.93,clear sky
420,Ossora,RU,59.2353,163.0719,34.79,99,100,4.18,overcast clouds
421,Cimitarra,CO,6.3142,-73.9497,76.39,92,100,1.99,overcast clouds
422,Ribeira Grande,PT,38.5167,-28.7,60.01,77,100,20.83,overcast clouds
423,Sayyan,YE,15.1718,44.3244,61.14,43,0,5.93,clear sky
424,Mitsamiouli,KM,-11.3847,43.2844,73.69,78,20,4.61,few clouds
425,Acapulco,MX,16.8634,-99.8901,80.42,78,40,2.3,scattered clouds
426,Laguna,US,38.421,-121.4238,55.9,52,0,9.22,clear sky
427,Sakaiminato,JP,35.55,133.2333,73.38,68,75,4.61,broken clouds
428,Venice,US,27.0998,-82.4543,73.99,58,0,16.11,clear sky
429,Karratha,AU,-20.7377,116.8463,79.63,17,36,17.31,scattered clouds
430,Abu Dhabi,AE,24.4667,54.3667,81.97,73,0,5.75,clear sky
431,Tilichiki,RU,60.4667,166.1,34.5,95,98,4.41,overcast clouds
432,Lima,PE,-12.0432,-77.0282,61.9,80,0,8.05,clear sky
433,Kirkland Lake,CA,48.1446,-80.0377,68.29,24,34,9.86,scattered clouds
434,Okha,RU,53.5739,142.9478,36.88,89,30,21.07,scattered clouds
435,Qobustan,AZ,40.0824,49.412,54.43,94,100,3.13,moderate rain
436,Moramanga,MG,-18.9333,48.2,54.73,93,5,1.74,clear sky
437,Lashio,MM,22.9333,97.75,68.38,99,100,0.45,overcast clouds
438,Margau,RO,46.75,22.9667,44.28,84,43,5.41,scattered clouds
439,Romeoville,US,41.6475,-88.0895,84.15,78,100,10.36,overcast clouds
440,Ahuimanu,US,21.4447,-157.8378,80.31,67,75,17.27,broken clouds
441,Bani Walid,LY,31.7566,13.9942,58.64,82,100,2.33,overcast clouds
442,Bushehr,IR,28.9684,50.8385,77.09,57,0,4.61,clear sky
443,Barranca,PE,-10.75,-77.7667,63.63,83,0,6.02,clear sky
444,Lorengau,PG,-2.0226,147.2712,86.16,68,92,10.78,overcast clouds
445,Gimli,CA,50.6336,-96.9907,55.42,50,1,2.3,clear sky
446,Taybad,IR,34.74,60.7756,64.67,50,0,14.76,clear sky
447,Wanaka,NZ,-44.7,169.15,55.94,51,8,1.66,clear sky
448,Visby,SE,57.6409,18.296,52.02,87,67,18.41,broken clouds
449,Umm Lajj,SA,25.0213,37.2685,79.86,42,67,9.53,broken clouds
450,Aykino,RU,62.2248,49.9922,41.38,71,86,8.34,overcast clouds
451,Bubaque,GW,11.2833,-15.8333,77.34,73,100,16.46,overcast clouds
452,Cayenne,GF,4.9333,-52.3333,82.09,1,75,8.99,broken clouds
453,Portland,US,45.5234,-122.6762,57.15,61,20,13.8,few clouds
454,George,ZA,-33.963,22.4617,58.55,77,75,11.5,broken clouds
455,Madimba,TZ,-10.4,40.3333,73.02,87,46,9.44,scattered clouds
456,Dong Hoi,VN,17.4833,106.6,87.28,67,94,5.41,overcast clouds
457,Kitimat,CA,54.0524,-128.6534,44.91,41,100,5.26,light rain
458,Los Llanos De Aridane,ES,28.6585,-17.9182,64.15,61,75,3.44,broken clouds
459,Tura,IN,25.5198,90.2201,74.17,89,96,5.32,overcast clouds
460,Russell,US,32.3502,-85.1999,69.4,73,0,0.0,clear sky
461,Pimentel,PE,-6.8367,-79.9342,64.15,84,18,10.29,few clouds
462,Mehamn,NO,71.0357,27.8492,37.35,93,75,6.91,broken clouds
463,Timberlake,US,37.3207,-79.2575,55.42,81,18,4.83,few clouds
464,Abalak,RU,58.1286,68.5944,56.86,39,100,12.17,overcast clouds
465,Makokou,GA,0.5738,12.8642,71.04,99,100,2.33,overcast clouds
466,Cabo San Lucas,MX,22.8909,-109.9124,80.62,60,0,13.89,clear sky
467,Aklavik,CA,68.2191,-135.0107,31.8,79,100,11.63,overcast clouds
468,Nago,JP,26.5881,127.9761,81.03,81,98,11.72,overcast clouds
469,Palora,EC,-1.7,-77.9333,65.73,97,30,2.46,light rain
470,Sobolevo,RU,54.4299,31.8996,38.26,78,91,6.76,overcast clouds
471,Port Hedland,AU,-20.3167,118.5667,82.45,11,12,14.97,few clouds
472,Alanya,TR,36.5438,31.9998,55.53,54,0,3.71,clear sky
473,Aktash,RU,50.3,87.7333,38.62,30,0,3.06,clear sky
474,Wajima,JP,37.4,136.9,74.08,43,75,13.8,broken clouds
475,Kerouane,GN,9.2667,-9.0167,72.68,70,97,4.61,overcast clouds
476,Yar-Sale,RU,66.8333,70.8333,27.68,99,94,9.6,overcast clouds
477,Kieta,PG,-6.2167,155.6333,85.28,69,29,6.55,scattered clouds
478,Sao Filipe,CV,14.8961,-24.4956,72.19,82,13,6.69,few clouds
479,Kelso,US,46.1468,-122.9084,55.36,61,0,6.91,clear sky
480,Songjianghe,CN,42.1859,127.479,50.58,65,100,7.9,overcast clouds
481,Bilma,NE,18.6853,12.9164,85.95,16,54,3.6,broken clouds
482,Georgiyevskoye,RU,58.731,45.024,42.53,92,100,11.01,overcast clouds
483,Wlingi,ID,-8.0776,112.3311,85.66,66,84,2.21,broken clouds
484,Nishihara,JP,26.1842,127.7558,80.26,89,100,14.97,light intensity drizzle
485,Abu Kamal,SY,34.4506,40.9171,68.65,34,0,3.33,clear sky
486,Vao,NC,-22.6667,167.4833,73.56,64,45,20.98,scattered clouds
487,Adra,ES,36.7496,-3.0206,65.37,64,2,5.97,clear sky
488,Margate,GB,51.3813,1.3862,52.7,84,77,4.0,broken clouds
489,Kodinsk,RU,58.6881,99.1844,48.92,51,95,4.29,overcast clouds
490,Barcelona,ES,41.3888,2.159,64.9,71,0,4.61,clear sky
491,Aneho,TG,6.2333,1.6,80.8,82,72,9.28,broken clouds
492,La Ronge,CA,55.1001,-105.2842,44.85,49,75,8.05,broken clouds
493,Shubarkuduk,KZ,49.1447,56.4872,43.66,67,28,13.82,scattered clouds
494,Susuman,RU,62.7833,148.1667,35.37,96,100,14.99,overcast clouds
495,Inongo,CD,-1.95,18.2667,71.55,97,98,2.17,light rain
496,Lufilufi,WS,-13.8745,-171.5986,89.38,72,51,12.12,broken clouds
497,Pisco,PE,-13.7,-76.2167,61.02,88,0,2.3,clear sky
498,Vila,PT,42.0304,-8.1588,43.68,55,29,1.7,scattered clouds
499,San Rafael,AR,-34.6177,-68.3301,56.93,42,100,7.87,overcast clouds
500,San Jeronimo,PE,-11.9472,-75.2829,49.96,81,71,2.19,broken clouds
501,Merrill,US,45.1805,-89.6835,69.75,77,40,8.05,scattered clouds
502,Samma,JO,32.571,35.6903,51.24,64,40,1.81,scattered clouds
503,Rafaela,AR,-31.2503,-61.4867,56.98,58,0,1.99,clear sky
504,Gilgit,PK,35.9221,74.3087,74.5,40,4,1.95,clear sky
505,The Valley,AI,18.217,-63.0578,81.1,82,91,19.82,overcast clouds
506,Ayan,RU,56.45,138.1667,35.53,92,95,4.61,overcast clouds
507,Paamiut,GL,61.994,-49.6678,32.74,99,100,4.38,light snow
508,Sangar,RU,63.9242,127.4739,34.59,57,21,9.08,few clouds
509,Bambui,BR,-20.0064,-45.9769,59.29,78,57,2.21,broken clouds
510,Nichinan,JP,31.6,131.3667,67.68,90,100,3.49,moderate rain
511,Kainantu,PG,-6.2887,145.8655,79.65,50,59,4.72,broken clouds
512,Hobyo,SO,5.3505,48.5268,81.91,72,94,13.89,overcast clouds
513,Kibala,TD,9.1104,18.3463,84.15,65,20,0.0,thunderstorm
514,Gohpur,IN,26.8833,93.6333,76.19,89,91,5.14,overcast clouds
515,Isangel,VU,-19.55,169.2667,82.51,61,40,11.5,scattered clouds
516,Hailar,CN,49.2,119.7,43.47,37,100,15.41,overcast clouds
517,Sawtell,AU,-30.3833,153.1,66.22,82,100,16.11,light intensity shower rain
518,Tessalit,ML,20.1986,1.0114,80.02,8,0,11.92,clear sky
519,Mount Isa,AU,-20.7333,139.5,73.17,64,100,10.36,overcast clouds
520,Pangnirtung,CA,66.1451,-65.7125,20.25,82,100,7.7,overcast clouds
521,Nakambala,ZM,-15.8324,27.7799,60.04,69,0,2.1,clear sky
522,Ust-Kuyga,RU,70.0167,135.6,23.7,82,100,12.01,overcast clouds
523,Venado Tuerto,AR,-33.7456,-61.9688,58.77,77,9,5.41,clear sky
524,Nhulunbuy,AU,-12.2333,136.7667,79.41,94,75,9.22,shower rain
525,Lachute,CA,45.6501,-74.3325,61.45,65,68,3.38,broken clouds
526,Ulverstone,AU,-41.15,146.1667,60.39,77,100,7.61,overcast clouds
527,Otavi,NA,-19.65,17.3333,56.75,32,0,2.17,clear sky
528,Waipawa,NZ,-41.4122,175.5153,50.92,58,85,6.04,overcast clouds
529,Kambove,CD,-10.8764,26.5969,56.91,80,6,3.6,clear sky
530,Ndele,CF,8.4109,20.6473,77.5,59,98,7.74,overcast clouds
531,Cururupu,BR,-1.8283,-44.8683,72.9,97,100,1.41,overcast clouds
532,Les Cayes,HT,18.2,-73.75,75.96,85,1,4.45,clear sky
533,Kemi,FI,65.8596,24.8228,42.57,100,100,9.22,moderate rain
534,Andenes,NO,69.3143,16.1194,40.98,100,75,8.05,broken clouds
535,Muravlenko,RU,63.7898,74.523,49.53,71,100,9.19,overcast clouds
536,Cockburn Town,TC,21.4612,-71.1419,79.23,79,70,6.78,broken clouds
537,Luwuk,ID,-0.9516,122.7875,82.83,82,100,5.19,overcast clouds
538,Chibombo,ZM,-14.6569,28.0706,58.86,69,0,4.05,clear sky
539,Bay City,US,43.5945,-83.8889,75.31,46,100,9.22,overcast clouds
540,Muskegon,US,43.3,-86.1334,80.46,65,75,8.05,broken clouds
541,Polovinnoye,RU,54.7914,65.9864,54.32,71,94,13.44,overcast clouds
542,Great Yarmouth,GB,52.6083,1.7305,56.01,70,100,11.7,overcast clouds
543,Bafq,IR,31.6128,55.4107,72.97,13,0,3.65,clear sky
544,Nioro,GM,13.35,-15.75,76.55,58,16,9.06,few clouds
545,Jacmel,HT,18.2342,-72.5347,80.44,83,48,3.98,scattered clouds
546,Joshimath,IN,30.5667,79.5667,71.71,53,5,4.81,clear sky
547,Tisovec,SK,48.6774,19.9436,54.23,83,86,4.09,overcast clouds
548,Ust-Maya,RU,60.4167,134.5333,36.25,56,100,6.93,overcast clouds
549,Missoula,US,47.0166,-113.8009,39.6,79,88,4.07,overcast clouds
550,Hay River,CA,60.8156,-115.7999,31.98,74,75,3.44,broken clouds
551,Khunti,IN,23.0833,85.2833,82.51,71,98,7.16,overcast clouds
552,Constitucion,CL,-35.3333,-72.4167,56.5,69,100,7.0,overcast clouds
553,Nemuro,JP,43.3236,145.575,48.16,74,0,10.11,clear sky
554,Mtambile,TZ,-5.3833,39.7,79.68,77,1,15.46,clear sky
555,Dingle,PH,10.9995,122.6711,88.86,57,99,5.61,overcast clouds
556,Kosonsoy,UZ,41.2561,71.5508,63.16,68,82,6.02,broken clouds
557,Mahajanga,MG,-15.7167,46.3167,69.82,83,0,5.75,clear sky
558,La Asuncion,VE,11.0333,-63.8628,77.81,84,35,16.15,scattered clouds
559,Cabedelo,BR,-6.9811,-34.8339,75.87,84,68,9.86,broken clouds
560,Waunakee,US,43.1919,-89.4557,78.58,81,40,1.01,scattered clouds
561,Nenagh,IE,52.8619,-8.1967,49.55,95,55,7.4,broken clouds
562,Mafinga,TZ,-7.25,35.0667,63.16,73,9,0.94,clear sky
563,Bam,IR,29.106,58.357,81.21,9,0,11.86,clear sky
564,Chumphon,TH,10.3333,98.8333,83.75,71,96,1.34,overcast clouds
565,Noyabrsk,RU,63.1994,75.4507,52.32,62,100,12.37,overcast clouds
566,Tiznit,MA,29.5833,-9.5,71.53,21,82,0.34,broken clouds
567,Tucuman,AR,-26.8241,-65.2226,68.0,73,100,2.3,overcast clouds
568,Tigil,RU,57.8,158.6667,52.2,51,4,0.92,clear sky
569,Beitbridge,ZW,-22.2167,30.0,61.63,81,0,2.08,clear sky
570,Kashi,CN,39.4547,75.9797,83.41,15,20,6.71,few clouds
571,Meulaboh,ID,4.1363,96.1285,83.75,75,91,3.94,overcast clouds
572,Imbituba,BR,-28.24,-48.6703,68.86,93,100,7.09,overcast clouds
573,Pecos,US,31.4229,-103.4932,81.43,57,0,13.8,clear sky
574,Sindor,RU,62.8629,51.8905,40.01,71,86,7.38,overcast clouds
575,Qaqortoq,GL,60.7167,-46.0333,34.41,92,97,3.83,overcast clouds
576,Kedrovyy,RU,56.1667,91.8167,46.87,28,0,6.22,clear sky
577,Agadez,NE,19.75,10.25,84.04,22,63,11.21,broken clouds
578,Akcaabat,TR,41.0212,39.5715,51.67,76,0,3.44,clear sky
579,Bail Hongal,IN,15.8167,74.8667,78.04,69,100,19.82,overcast clouds
580,Kathu,TH,7.9178,98.3332,86.76,83,90,3.0,overcast clouds
581,Longford,IE,53.7333,-7.8,48.33,85,81,13.24,broken clouds
582,Kisangani,CD,0.5167,25.2,70.47,100,100,1.77,overcast clouds
583,Svetlaya,RU,46.5389,138.3297,55.72,57,98,10.25,overcast clouds
584,Hamilton,US,39.1834,-84.5333,74.98,79,0,5.75,clear sky
585,Srednekolymsk,RU,67.45,153.6833,26.24,88,100,5.23,overcast clouds
586,San Bartolome De Tirajana,ES,27.9248,-15.5733,63.07,79,20,5.75,few clouds
587,Shunyi,CN,40.125,116.6453,67.95,34,0,6.71,clear sky
588,Xichang,CN,27.8964,102.2634,69.62,76,92,6.42,overcast clouds
589,Camana,PE,-16.6228,-72.7111,65.08,87,0,7.54,clear sky
590,Hokitika,NZ,-42.7167,170.9667,58.75,50,2,2.24,clear sky
591,Honiara,SB,-9.4333,159.95,84.87,76,91,5.88,moderate rain
592,Hutchinson,US,38.0608,-97.9298,82.35,77,0,14.97,clear sky
593,Gisborne,NZ,-38.6533,178.0042,55.49,72,84,17.11,broken clouds
594,Amahai,ID,-3.3333,128.9167,83.77,78,57,5.12,broken clouds
595,Feijo,BR,-8.1642,-70.3536,72.7,99,100,2.1,overcast clouds
596,Rahuri,IN,19.3833,74.65,89.69,34,64,13.2,broken clouds
597,Ukiah,US,39.1502,-123.2078,51.37,67,20,9.22,few clouds
598,Berdavan,AM,41.205,44.9997,47.05,76,93,1.74,overcast clouds
599,George Town,MY,5.4112,100.3354,85.93,54,20,2.3,few clouds
600,Waddan,LY,29.1614,16.139,62.83,57,13,13.31,few clouds
601,Winnemucca,US,40.973,-117.7357,41.05,52,0,6.91,clear sky
602,Bentiu,SS,9.2333,29.8333,82.2,58,100,3.94,overcast clouds
603,Erenhot,CN,43.6475,111.9767,44.67,20,3,14.29,clear sky
604,Puerto Leguizamo,CO,-0.1934,-74.7819,71.92,98,56,1.28,broken clouds
605,Libertador General San Martin,AR,-23.8064,-64.7876,56.97,94,2,1.9,clear sky
606,Mercedes,AR,-34.6515,-59.4307,53.78,90,10,6.53,clear sky
607,Wallaceburg,CA,42.593,-82.3885,66.22,69,23,9.84,few clouds
608,Blue Springs,US,39.0169,-94.2816,79.75,83,0,12.66,clear sky
609,Marzuq,YE,14.4,46.4667,78.42,22,5,2.48,clear sky
610,Gazli,UZ,40.1333,63.45,72.19,26,65,13.65,broken clouds
611,Bilibino,RU,68.0546,166.4372,34.11,87,100,3.11,overcast clouds
612,Maarianhamina,AX,60.0973,19.9348,46.26,93,20,11.5,few clouds
613,Winslow,US,35.0242,-110.6974,68.18,14,0,14.97,clear sky
614,Uribia,CO,11.7139,-72.266,81.55,77,100,9.04,overcast clouds
615,Lamar,US,33.6668,-95.5836,78.71,78,0,10.36,clear sky
616,Ojinaga,MX,29.5667,-104.4167,86.95,39,0,13.8,clear sky
617,Sakakah,SA,29.9697,40.2064,67.57,28,0,4.9,clear sky
618,Padang,ID,-0.9492,100.3543,84.25,61,99,4.03,overcast clouds
619,Toccoa,US,34.5773,-83.3324,65.77,80,0,0.0,clear sky
620,Uarini,BR,-2.99,-65.1083,73.08,98,34,1.77,scattered clouds
621,Danville,US,36.586,-79.395,55.96,82,0,4.61,clear sky
622,Mogocha,RU,53.7333,119.7667,35.08,56,100,12.28,light snow
623,Victor Harbor,AU,-35.5667,138.6167,64.69,82,43,7.99,scattered clouds
624,Trelew,AR,-43.249,-65.3051,41.27,100,20,3.44,fog
625,Palauig,PH,15.435,119.9045,86.2,68,39,9.19,scattered clouds
626,Coruripe,BR,-10.1256,-36.1756,74.82,86,57,4.41,broken clouds
627,Bafata,GW,12.1667,-14.75,77.97,45,84,4.14,broken clouds
628,Hua Hin,TH,12.5707,99.9588,86.02,79,20,6.91,few clouds
629,Jinxiang,CN,27.4327,120.6062,68.23,93,100,3.11,overcast clouds
630,Fremont,US,37.5483,-121.9886,54.09,64,0,16.11,clear sky
631,Acajutla,SV,13.5928,-89.8275,82.18,76,32,3.67,scattered clouds
632,Belaya,UA,49.029,25.7706,49.82,70,100,1.23,overcast clouds
633,Kyshtovka,RU,56.555,76.6271,58.75,26,100,13.73,overcast clouds
634,Yorkton,CA,51.2167,-102.4677,41.41,86,98,5.21,overcast clouds
635,Piedras Negras,MX,28.7,-100.5167,87.28,59,100,16.87,light rain
636,Osypenko,UA,46.9136,36.8253,48.65,60,49,9.86,scattered clouds
637,Barraute,CA,48.4335,-77.6328,70.07,60,10,9.33,clear sky
638,Sassandra,CI,4.95,-6.0833,78.21,91,100,5.39,overcast clouds
639,Ponta Delgada,PT,37.7333,-25.6667,64.51,77,20,6.91,few clouds
640,Torbat-E Jam,IR,35.244,60.6225,65.01,51,0,2.13,clear sky
641,Sibolga,ID,1.7427,98.7792,86.07,68,96,3.13,overcast clouds
642,Shizuishan,CN,39.2333,106.7694,62.73,28,51,14.45,broken clouds
643,Kupang,ID,-10.1667,123.5833,85.98,54,6,3.89,clear sky
644,Nova Vicosa,BR,-17.8919,-39.3719,72.27,77,72,1.92,broken clouds
645,Amapa,BR,1.0,-52.0,70.52,100,100,1.77,overcast clouds
646,Lichtenburg,ZA,-26.152,26.1597,50.79,54,69,3.96,broken clouds
647,Kenora,CA,49.8167,-94.4337,54.57,47,20,4.61,few clouds
648,Todos Santos,MX,23.45,-110.2167,65.66,79,0,8.19,clear sky
649,Magburaka,SL,8.7167,-11.95,75.58,93,60,0.92,broken clouds
650,Sandy Bay,AU,-42.913,147.3532,61.3,66,0,8.05,clear sky
651,Port Shepstone,ZA,-30.7414,30.455,63.88,64,100,5.99,overcast clouds
652,Maceio,BR,-9.6658,-35.7353,76.44,88,75,5.75,broken clouds
653,Beruwala,LK,6.4788,79.9828,84.31,80,86,16.13,overcast clouds
654,Muhos,FI,64.808,25.9931,44.89,91,100,11.01,light rain
655,Manoel Urbano,BR,-8.8389,-69.2597,72.34,99,100,0.69,overcast clouds
656,Kamenka,RU,51.3223,42.7678,36.25,97,100,14.25,light rain
657,Shimanovsk,RU,52.0,127.7,41.49,71,100,8.48,light rain
658,Cheremukhovo,RU,60.3484,59.9851,50.79,74,100,7.11,overcast clouds
659,Lyuban,BY,52.7985,28.0048,45.37,73,28,4.41,scattered clouds
660,Broome,US,42.2506,-75.833,54.37,62,1,1.01,clear sky
661,Kampot,KH,10.6167,104.1833,87.85,66,100,4.92,overcast clouds
662,Ingham,US,42.6,-84.3833,73.02,54,100,8.05,overcast clouds
663,Glubokiy,RU,48.5217,40.3258,43.74,67,30,13.49,scattered clouds
664,Miri,MY,4.4148,114.0089,87.94,84,40,4.61,scattered clouds
665,Progress,US,40.2851,-76.8314,56.98,71,0,3.44,clear sky
666,Abha,SA,18.2164,42.5053,69.62,43,0,0.0,clear sky
667,Capitao Poco,BR,-1.7464,-47.0594,71.65,98,98,2.55,overcast clouds
668,Shahrud,IR,36.4182,54.9763,60.8,50,12,6.26,few clouds
669,Ivdel,RU,60.6911,60.4206,54.14,66,99,7.27,overcast clouds
670,Mirabad,AF,30.4362,61.8383,78.12,30,0,18.3,clear sky
671,Prosec,CZ,49.8059,16.1162,58.05,54,99,8.99,overcast clouds
672,Kloulklubed,PW,7.0419,134.2556,79.3,85,100,15.82,heavy intensity rain
673,Whitehorse,CA,60.7161,-135.0538,39.02,78,75,5.75,broken clouds
674,Siocon,PH,7.7061,122.1353,80.62,85,100,2.77,overcast clouds
675,Vygonichi,RU,53.0985,34.0673,44.71,53,0,11.18,clear sky
676,Machilipatnam,IN,16.1667,81.1333,82.83,87,100,30.11,heavy intensity rain
677,Marrakesh,MA,31.6315,-8.0083,71.67,35,0,1.14,clear sky
678,Vienna,AT,48.2085,16.3721,58.6,80,0,3.44,clear sky
679,Agadir,MA,30.4202,-9.5982,59.45,42,100,6.33,overcast clouds
680,Quang Ngai,VN,15.1167,108.8,89.26,64,86,4.52,overcast clouds
681,Paraiso,CR,9.8383,-83.8656,66.42,96,100,1.19,overcast clouds
682,Baft,IR,29.234,56.6057,68.16,13,0,6.24,clear sky
683,Henties Bay,NA,-22.116,14.2845,61.41,71,25,6.55,scattered clouds
684,Alad,PH,12.6168,122.2475,83.46,72,89,8.81,overcast clouds
685,Marang,MY,5.2056,103.2059,84.11,74,56,4.76,broken clouds
686,Severnoye,RU,56.3491,78.3619,56.26,27,100,11.79,overcast clouds
687,Gelibolu,TR,40.4103,26.6708,40.86,76,1,8.25,clear sky
688,Kurumkan,RU,54.3,110.3,43.14,38,95,3.85,overcast clouds
689,Belaya Gora,RU,68.5333,146.4167,24.76,70,100,3.76,overcast clouds
690,Port-Gentil,GA,-0.7193,8.7815,80.15,84,100,8.75,moderate rain
691,Tongliao,CN,43.6125,122.2653,62.02,15,32,13.22,scattered clouds
