City_ID,City,Country,Max Temp,Current Description,Lat,Lng,Hotel Name
1,Aracati,BR,76.6,light rain,-4.5617,-37.7697,Motel Pousada Milleniun - Aracati-CE
2,Iquitos,PE,75.24,broken clouds,-3.7481,-73.2472,Cortez Malaga Techy Caroly
3,Butaritari,KI,81.45,few clouds,3.0707,172.7902,Isles Sunset Lodge
4,Port Alfred,ZA,63.18,clear sky,-33.5906,26.891,The Halyards Hotel
5,Bluff,NZ,57.79,broken clouds,-46.6,168.3333,Bluff Homestead - Guesthouse & Campervan Park
6,Alta Floresta,BR,72.01,scattered clouds,-9.8756,-56.0861,Floresta Amazonica Hotel
7,Busselton,AU,68.11,overcast clouds,-33.65,115.3333,Observatory Guest House
8,Punta Arenas,CL,46.51,broken clouds,-53.15,-70.9167,Hotel Hain
9,Fortuna,US,51.66,broken clouds,40.5982,-124.1573,Super 8 by Wyndham Fortuna
10,Lebu,CL,51.55,overcast clouds,-37.6167,-73.65,Hostal Las Lilas
11,Chandia,IN,93.04,clear sky,23.65,80.7,Smile Hotel & DJ Road Light
12,Takoradi,GH,79.93,light rain,4.8845,-1.7554,Raybow International Hotel
13,Mamburao,PH,89.33,broken clouds,13.25,120.6667,UPPER(tii)
14,Poum,NC,78.64,broken clouds,-20.2333,164.0167,
15,Rocha,UY,55.71,moderate rain,-34.4833,-54.3333,Hotel Arrarte
16,Namibe,AO,72.39,broken clouds,-15.1961,12.1522,Hotel Chik Chik Namibe
17,Sur,OM,85.87,clear sky,22.5667,59.5289,Sur Plaza Hotel
18,Eirunepe,BR,72.86,overcast clouds,-6.6603,-69.8736,Atrás de você
20,Kavieng,PG,85.24,overcast clouds,-2.5744,150.7967,Nusa Island Retreat
21,Ulladulla,AU,63.77,overcast clouds,-35.35,150.4667,Sandpiper Motel
22,Basco,PH,83.98,broken clouds,20.4487,121.9702,Nathaniel's Lodge
23,Hobart,AU,61.27,clear sky,-42.8794,147.3294,St Ives Hobart Accommodation Tasmania
24,Nikolskoye,RU,48.09,broken clouds,59.7035,30.7861,Tourist House - Sablino
25,Mar Del Plata,AR,54.88,scattered clouds,-38.0023,-57.5575,Gran Hotel Mar del Plata
26,Albany,US,53.89,clear sky,42.6001,-73.9662,
27,Vaini,TO,80.76,few clouds,-21.2,-175.2,Keleti Beach Resort
29,Codrington,AU,66.79,overcast clouds,-38.2667,141.9667,Codrington Gardens Bed And Breakfast
31,Hualmay,PE,64.06,clear sky,-11.0964,-77.6139,Hotel Villa Kitzia Huacho
32,Luanda,AO,74.26,broken clouds,-8.8368,13.2343,EPIC SANA Luanda
36,Palmas De Monte Alto,BR,68.79,broken clouds,-14.2672,-43.1619,RAVENA AUTO POSTO LTDA
37,Gamba,GA,76.93,broken clouds,-2.65,10.0,
40,Fukue,JP,66.56,light rain,32.6881,128.8419,Goto Guesthouse Utojuku & SA Car Rental
41,Nouadhibou,MR,64.98,overcast clouds,20.931,-17.0347,El Medina
42,Charters Towers,AU,71.47,light rain,-20.1,146.2667,Cattleman's Rest Motor Inn
44,Byron Bay,AU,65.71,light rain,-28.65,153.6167,Backpackers Inn
45,Cape Town,ZA,57.34,broken clouds,-33.9258,18.4232,"Radisson Blu Hotel Waterfront, Cape Town"
46,Ancud,CL,45.99,overcast clouds,-41.8697,-73.8203,Hotel Arena Gruesa
47,Huarmey,PE,64.72,clear sky,-10.0681,-78.1522,Hotel Miramar
48,Raduzhnyy,RU,55.8,overcast clouds,62.0961,77.475,Gostiny Dvor Evgeniya
50,Buraydah,SA,76.3,clear sky,26.326,43.975,Mövenpick Qassim
51,Fonte Boa,BR,73.69,broken clouds,-2.4959,-66.2662,
52,Mataura,NZ,57.47,few clouds,-46.1927,168.8643,Ellie's Villa
56,Champerico,GT,84.49,overcast clouds,14.3,-91.9167,"Hotel y restaurante ""El Diamante"""
57,Puerto Ayora,EC,71.55,few clouds,-0.7393,-90.3518,Finch Bay Galapagos Hotel
58,Yangambi,CD,69.67,overcast clouds,0.8102,24.4336,
59,Lasa,IT,49.37,broken clouds,46.6166,10.7002,Pension Feldgärtenhof
60,Arraial Do Cabo,BR,72.86,overcast clouds,-22.9661,-42.0278,Pousada Porto Praia
62,Oranjestad,AW,80.94,overcast clouds,12.524,-70.027,Divi Village Golf & Beach Resort
63,Hermanus,ZA,59.81,overcast clouds,-34.4187,19.2345,Misty Waves Boutique Hotel
64,Rikitea,PF,77.07,few clouds,-23.1203,-134.9692,People ThankYou
66,Bowen,AU,73.27,light rain,-20.0167,148.2333,Castle Motor Lodge Motel
67,Wollongong,AU,69.26,light rain,-34.4333,150.8833,Flinders Motel
69,New Norfolk,AU,60.93,overcast clouds,-42.7826,147.0587,The Shingles Riverside Cottages
70,Kavaratti,IN,85.41,overcast clouds,10.5669,72.642,Hotels in Lakshadweep Islands
71,Vidim,RU,48.13,broken clouds,56.4088,103.1106,
73,Ushuaia,AR,46.06,few clouds,-54.8,-68.3,Albatross Hotel
74,Dongying,CN,65.5,overcast clouds,37.4564,118.4856,Wanda Realm
75,Jimo,CN,68.68,moderate rain,36.3897,120.4622,Thank Inn Chain Hotel Shandong Jimo Bus Station
76,Bredasdorp,ZA,59.99,overcast clouds,-34.5322,20.0403,Bredasdorp Country Manor
77,Roald,NO,49.33,light rain,62.5833,6.1333,Flem Cabins
78,Newport,GB,55.08,moderate rain,51.5877,-2.9984,ibis budget Newport
79,Rawson,AR,50.76,clear sky,-43.3002,-65.1023,Hosteria Sampedro
80,Avarua,CK,80.85,few clouds,-21.2078,-159.775,Paradise Inn
82,Hithadhoo,MV,84.42,overcast clouds,-0.6,73.0833,Scoop Guest House
83,San Patricio,US,80.83,broken clouds,28.017,-97.5169,"Motel 6 Sinton, TX"
84,Baiao,BR,71.85,moderate rain,-2.7906,-49.6717,Hotel Eurosono
85,Jingcheng,CN,71.01,overcast clouds,32.0142,120.2625,GreenTree Inn Taizhou Jingjiang Jiangping Road Shanghai City Business Hotel
86,Atuona,PF,79.14,scattered clouds,-9.8,-139.0333,Villa Enata
89,Kilindoni,TZ,80.26,clear sky,-7.9139,39.6668,Bustani B&B
90,Jamestown,US,58.05,overcast clouds,42.097,-79.2353,Hampton Inn & Suites Jamestown
91,Hilo,US,77.29,broken clouds,19.7297,-155.09,Hilo Hawaiian Hotel
92,Quatre Cocos,MU,77.09,overcast clouds,-20.2078,57.7625,Sunrise Attitude Hotel
94,Itarema,BR,75.81,overcast clouds,-2.9248,-39.9167,"Sea Lounge! Bar, Club & Restaurant"
95,Port Elizabeth,ZA,63.32,clear sky,-33.918,25.5701,39 On Nile Guest House
96,Moron,AR,58.75,clear sky,-34.6534,-58.6198,Hotel Morón
97,Mataram,ID,90.41,overcast clouds,-8.5833,116.1167,Hotel Santika Mataram
99,Touros,BR,76.5,broken clouds,-5.1989,-35.4608,INN NEW HORIZON
100,Guerrero Negro,MX,60.08,clear sky,27.9769,-114.0611,"Casa Laguna, Bed & Breakfast"
101,Dhidhdhoo,MV,84.29,overcast clouds,6.8833,73.1,Dhidhoo beach
102,Luau,AO,61.66,clear sky,-10.7073,22.2247,Casa- Bernardo Cândido
103,Seminole,US,68.41,clear sky,28.7086,-81.2081,Ono Hot Dog Cart and Catering
104,Candolim,IN,86.0,moderate rain,15.5181,73.7626,Resort Terra Paraiso
105,Sovetskiy,RU,57.79,overcast clouds,61.3614,63.5842,Apartment on Kievskaya 29
107,Diu,IN,85.93,overcast clouds,20.7141,70.9822,Hotel Relax Inn
108,Mahibadhoo,MV,84.52,overcast clouds,3.7833,72.9667,Omadhoo Inn
109,Albanel,CA,53.74,overcast clouds,48.8832,-72.4487,Camping municipal d'Albanel
110,Cidreira,BR,63.54,light rain,-30.1811,-50.2056,Hotel Castelo
111,Kasongo-Lunda,CD,70.61,light rain,-6.4667,16.8167,
113,Mizunami,JP,70.48,moderate rain,35.3667,137.25,Business Mizunami Plaza Hotel
114,Allapalli,IN,88.07,overcast clouds,19.4167,80.0667,"Hotel IK Residency, GUEST HOUSE AC NON AC"
115,Castro,BR,58.53,overcast clouds,-24.7911,-50.0119,CHACARA BAILLY
116,Kruisfontein,ZA,58.77,clear sky,-34.0033,24.7314,Oyster Bay House Rental
117,Taltal,CL,59.52,scattered clouds,-25.4,-70.4833,Residencial Karime
118,San Cristobal,VE,68.18,overcast clouds,7.7669,-72.225,Pirineos
119,Hayden,US,51.19,clear sky,47.766,-116.7866,Triple Play Resort Hotel & Suites
120,Teguldet,RU,49.3,clear sky,57.3064,88.1667,
121,Port Lincoln,AU,63.01,clear sky,-34.7333,135.8667,Port Lincoln Hotel
122,Kodiak,US,47.71,clear sky,57.79,-152.4072,Best Western Kodiak Inn And Convention Center
125,Vila Do Maio,CV,72.39,clear sky,15.1333,-23.2167,Hotel Marilu
126,Tuy Hoa,VN,88.39,few clouds,13.0833,109.3,CenDeluxe Hotel Tuy Hoa
127,Alofi,NU,75.09,overcast clouds,-19.0595,-169.9187,Taloa Heights
129,Nuqui,CO,76.91,moderate rain,5.7125,-77.2708,Hotel Nuquimar
130,Vilela,PT,55.04,scattered clouds,41.2251,-7.6034,Quinta do Poeira
131,Georgetown,MY,85.93,few clouds,5.4112,100.3354,Cititel Penang
132,Palmer,US,51.4,clear sky,42.1584,-72.3287,Wedgewood Motel
133,Bethel,US,57.29,clear sky,41.3712,-73.414,Courtyard by Marriott Danbury
137,Puyo,EC,65.55,light rain,-1.4667,-77.9833,Hosteria Kindi Wasi
138,Olkhovka,RU,47.25,overcast clouds,53.2115,60.6069,
139,San Borja,BO,70.83,broken clouds,-14.8167,-66.85,
140,Ashqelon,IL,58.89,broken clouds,31.6693,34.5715,Leonardo Ashkelon
141,Chuy,UY,58.87,overcast clouds,-33.6971,-53.4616,Nuevo Hotel Plaza
142,Carnarvon,AU,84.27,overcast clouds,-24.8667,113.6333,Hospitality Carnarvon
143,Ponta Do Sol,PT,66.13,clear sky,32.6667,-17.1,Hotel do Campo
145,Kapaa,US,82.38,broken clouds,22.0752,-159.319,Sheraton Kauai Coconut Beach Resort
146,Vila Velha,BR,69.75,scattered clouds,-20.3297,-40.2925,Hotel Vitória Palace
147,Suba,PH,84.07,few clouds,10.8438,121.0102,Jarnchi Pension House
148,Merke,KZ,61.02,light rain,42.8728,73.1786,Gostinitsa Merki
149,Brae,GB,47.52,overcast clouds,60.3964,-1.353,Busta House Hotel
150,Auki,SB,85.39,overcast clouds,-8.7676,160.7034,Auki Motel
151,Mae Hong Son,TH,82.54,broken clouds,19.3003,97.9685,Baiyoke Chalet Hotel
152,Zigong,CN,67.96,overcast clouds,29.3416,104.7769,Shangkeyou Express Hotel In Wuxing Street
153,Mount Gambier,AU,65.26,scattered clouds,-37.8333,140.7667,The Commodore
154,Hambantota,LK,84.79,overcast clouds,6.1241,81.1185,Bungalow 63
157,Katsuura,JP,66.72,overcast clouds,35.1333,140.3,Katsuura Hotel Mikazuki
158,Tulu Bolo,ET,59.43,clear sky,8.6667,38.2167,Kiya Sime Hotel
159,Filadelfia,US,60.87,scattered clouds,39.9523,-75.1638,"The Ritz-Carlton, Philadelphia"
160,Fort Nelson,CA,47.79,broken clouds,58.8053,-122.7002,The Fort Nelson Hotel
161,Paka,MY,85.93,scattered clouds,4.6374,103.4368,RUMBIA RESORT VILLA Paka Terengganu
162,Saint Anthony,US,73.02,clear sky,45.0205,-93.218,Holiday Inn Express Roseville-St. Paul
163,Victoria,HK,78.85,moderate rain,22.2855,114.1577,Mini Central
165,Ahipara,NZ,62.71,clear sky,-35.1667,173.1667,Ahipara Holiday Park
166,Souillac,MU,71.98,few clouds,-20.5167,57.5167,Shanti Maurice Resort & Spa
167,Bathsheba,BB,81.21,scattered clouds,13.2167,-59.5167,Atlantis Hotel
168,Smidovich,RU,66.81,overcast clouds,48.6,133.8167,Gostinnitsa
169,Bambous Virieux,MU,77.22,overcast clouds,-20.3428,57.7575,Casa Tia Villa
173,Geraldton,AU,72.01,broken clouds,-28.7667,114.6,Broadwater Mariner Resort
175,Gat,IL,68.4,broken clouds,31.61,34.7642,OlusHome
176,Mahebourg,MU,77.25,few clouds,-20.4081,57.7,Shandrani Beachcomber Resort & Spa
180,Hasaki,JP,75.29,overcast clouds,35.7333,140.8333,Inubosaki Kanko Hotel
183,Komsomolskiy,UZ,68.72,scattered clouds,40.4272,71.7189,Ikathouse
184,Chahal,GT,73.11,scattered clouds,15.75,-89.5667,HOTEL MY WONDERFUL DAYS
186,Amposta,ES,60.22,broken clouds,40.7131,0.581,Hotel Hcc Montsià
187,Tabas,IR,77.85,clear sky,33.5959,56.9244,شرکت معماری مهراز شایگان آراد
189,Viesite,LV,45.32,overcast clouds,56.3475,25.5551,Krogs pie Viktora
190,Kaitangata,NZ,56.8,few clouds,-46.2817,169.8464,Kaitangata Motor Camp
191,Santiago Del Estero,AR,66.79,scattered clouds,-27.7951,-64.2615,Apartamentos Castelli 90
192,Waycross,US,60.85,clear sky,31.2136,-82.354,Super 8 by Wyndham Waycross GA
194,Nizhniy Ingash,RU,50.38,clear sky,56.2,96.53,Gostinitsa Bayazet
195,Chapais,CA,58.78,clear sky,49.7834,-74.8492,Hôtel Opémiska
196,Buala,SB,84.42,overcast clouds,-8.145,159.5921,Maringe Lagoon Lodge
197,Inhambane,MZ,65.5,clear sky,-23.865,35.3833,Oceano
198,Guilin,CN,75.31,broken clouds,25.2819,110.2864,Grand 0773 Hotel
199,Airai,TL,75.42,broken clouds,-8.9266,125.4092,
200,Talara,PE,66.09,few clouds,-4.5772,-81.2719,Hostal Oro Negro
201,Esperance,AU,71.22,overcast clouds,-33.8667,121.9,Hospitality Esperance
203,Tecoanapa,MX,81.07,broken clouds,16.5167,-98.75,Hotel Manglares
204,San Quintin,MX,59.43,overcast clouds,30.4833,-115.95,Don Eddie's Sport Fishing Center
206,Xixiang,CN,68.43,overcast clouds,35.1628,112.865,Hongchang Rest House
207,Namatanai,PG,85.82,broken clouds,-3.6667,152.4333,Seagulls Inn Namatani
208,Benghazi,LY,62.46,scattered clouds,32.1167,20.0667,Tibesti Hotel
209,Yima,CN,65.44,overcast clouds,34.7381,111.8839,Yima Hotel
210,Rio Claro,BR,61.39,broken clouds,-22.4114,-47.5614,Hotel Vivendas Rio Claro by Atlantica
211,Vostok,RU,70.12,overcast clouds,46.4856,135.8833,
212,Kroya,ID,86.41,few clouds,-7.6331,109.2461,Devina kost & Homestay Kroya
213,Xining,CN,58.77,few clouds,36.6167,101.7667,Super Leisure Hotel
214,Bitung,ID,88.65,overcast clouds,1.4451,125.1824,K2 Lembeh
215,Manaus,BR,79.3,clear sky,-3.1019,-60.025,Manaus Hotéis Millennium
216,Amiens,FR,53.04,few clouds,49.9,2.3,Grand Hôtel de l'Univers
217,Miguel Hidalgo,MX,71.58,scattered clouds,19.4225,-99.2028,JW Marriott Hotel Mexico City
218,General Pico,AR,54.61,few clouds,-35.6566,-63.7568,Euskadi Hotel
219,Kukuna,SL,77.81,scattered clouds,9.4,-12.6667,
220,Sabang,ID,84.65,overcast clouds,5.8933,95.3214,Hotel Citra
223,Riyadh,SA,77.14,clear sky,24.6877,46.7219,"InterContinental Riyadh, an IHG Hotel"
224,Naze,JP,71.38,overcast clouds,28.3667,129.4833,Shishime Hotel
225,Valparaiso,CL,57.47,fog,-33.0393,-71.6273,Hotel Ultramar
227,Fairview,US,60.48,clear sky,40.8126,-73.999,Homewood Suites by Hilton Edgewater-NYC Area
228,Forbes,AU,61.2,moderate rain,-33.3833,148.0167,Lake Forbes Motel
229,Altamira,BR,71.76,overcast clouds,-3.2033,-52.2064,Requinte Hotel
230,Whitianga,NZ,60.03,scattered clouds,-36.8333,175.7,Beachside Resort Whitianga
232,Lethem,GY,76.51,scattered clouds,3.3803,-59.7968,Savannah Inn
237,Westport,US,57.74,clear sky,41.1415,-73.3579,The Westport Inn
238,Koumac,NC,80.82,broken clouds,-20.5667,164.2833,Le Monitel
239,Jalu,LY,66.47,scattered clouds,29.0331,21.5482,صاحبة الفخامة
240,Poso,ID,87.84,overcast clouds,-1.3959,120.7524,Hotel 77 Poso
241,Sao Jose Da Coroa Grande,BR,76.05,scattered clouds,-8.8978,-35.1478,Crôa Mares Hotel
242,Dunedin,NZ,57.51,few clouds,-45.8742,170.5036,Scenic Hotel Southern Cross
243,Bereda,ES,52.41,scattered clouds,43.2686,-7.5406,Pazo de Verdes
245,Faanui,PF,82.98,few clouds,-16.4833,-151.75,Bora-Bora Pearl Beach Resort & Spa
247,Makasar,ID,87.85,few clouds,-5.14,119.4221,Aryaduta Makassar
248,Kapuskasing,CA,62.69,broken clouds,49.4169,-82.4331,Park Inn Motel
249,Muros,ES,55.17,scattered clouds,42.7762,-9.0603,Apartment Av. Castelao
250,Bengkulu,ID,82.0,overcast clouds,-3.8004,102.2655,Grage Hotel Bengkulu
256,Teutonia,BR,62.76,overcast clouds,-29.4481,-51.8064,Baviera Park Hotel
257,Ridgecrest,US,55.26,few clouds,35.6225,-117.6709,SpringHill Suites by Marriott Ridgecrest
258,Aripuana,BR,74.35,overcast clouds,-9.1667,-60.6333,
259,Kanniyakumari,IN,84.56,overcast clouds,8.0833,77.5667,Sparsa Kanyakumari
260,Petropavlovsk-Kamchatskiy,RU,54.19,scattered clouds,53.0452,158.6483,The Hotel Petropavlovsky
261,Huntsville,US,71.2,clear sky,34.7304,-86.5861,Embassy Suites by Hilton Huntsville Hotel & Spa
262,Golden,US,61.07,scattered clouds,39.7555,-105.2211,"The Golden Hotel, Ascend Hotel Collection"
263,Akyab,MM,77.88,overcast clouds,20.15,92.9,Hotel Memory
264,Atar,MR,85.5,clear sky,20.5169,-13.0499,Oumou Elghoura
265,Freiberg,DE,62.35,overcast clouds,50.9167,13.3667,Hotel am Obermarkt
267,Aswan,EG,78.42,scattered clouds,24.0934,32.907,Nuba Nile
268,Quelimane,MZ,67.95,few clouds,-17.8786,36.8883,Hotel Flamingo
269,Matay,EG,68.4,scattered clouds,28.419,30.7792,Nag Aespen
270,Vagur,FO,45.34,overcast clouds,61.4732,-6.8119,Budget Guesthouse Borgustova
272,Tuatapere,NZ,57.2,broken clouds,-46.1333,167.6833,Ron and Tony's Bed & Breakfast
273,Kudahuvadhoo,MV,84.36,overcast clouds,2.6708,72.8944,Niyama Private Islands Maldives
274,Lagoa,PT,58.42,overcast clouds,39.05,-27.9833,Casa Das Faias
275,Cootamundra,AU,62.94,light rain,-34.65,148.0333,Cootamundra Gardens Motel & indian restaurant
276,Marovoay,MG,65.34,clear sky,-16.1,46.6333,Hôtel les Oliviers Marovoay
277,Ako,JP,65.44,overcast clouds,34.75,134.4,Toyoko-Inn Banshu Ako ekimae
278,Visnes,NO,49.82,broken clouds,59.3556,5.2242,Park Inn Haugesund Airport
279,Ko Samui,TH,84.11,few clouds,9.5357,99.9357,The Passage
280,Nzega,RW,54.86,overcast clouds,-2.479,29.5564,Ubumwe Center Kigeme Ltd
282,Banda Aceh,ID,86.85,moderate rain,5.5577,95.3222,OYO 884 Rumoh PMI Hotel
283,East London,ZA,63.54,clear sky,-33.0153,27.9116,Tu Casa
284,Manggar,ID,87.33,broken clouds,-2.8833,108.2667,Guest Hotel
285,Samarai,PG,85.84,overcast clouds,-10.6167,150.6667,Nuli Sapi
286,Antofagasta,CL,60.08,scattered clouds,-23.65,-70.4,"Holiday Inn Express Antofagasta, an IHG Hotel"
287,Neiafu,TO,81.28,broken clouds,-18.65,-173.9833,Mystic Sands Beachfront Accommodation
289,Sao Paulo Do Potengi,BR,75.31,broken clouds,-5.895,-35.7628,Pousada Santa Clara
290,Ise,JP,65.52,light rain,34.4833,136.7,Ise Fresh
292,Liangxiang,CN,70.86,broken clouds,39.7319,116.14,Jinjiang Inn Beijing Liangxiang Nanguan Subway Station
293,Taoudenni,ML,85.57,clear sky,22.6783,-3.9836,
294,Puerto Escondido,MX,83.23,broken clouds,15.85,-97.0667,Aldea del Bazar Hotel and Spa
295,Jaca,ES,52.99,few clouds,42.569,-0.5499,Hotel Real Jaca & Spa
296,Lagos,NG,80.92,broken clouds,6.5833,3.75,
298,Ugoofaaru,MV,84.25,overcast clouds,5.6667,73.0,Ungoofaaru Inn
300,Flinders,AU,69.39,light rain,-34.5833,150.8552,Shellharbour Resort & Conference Centre
301,Pangai,TO,78.91,broken clouds,-19.8,-174.35,Ha'apai Beach Resort
302,Panaba,MX,78.67,clear sky,21.2833,-88.2667,Hotel California
303,Saint-Philippe,RE,72.1,clear sky,-21.3585,55.7679,"Chambres d'hôte ""La Trinité"""
304,Christchurch,NZ,61.41,clear sky,-43.5333,172.6333,The George
306,Gewane,ET,80.19,clear sky,10.1664,40.6453,እንደገና ገዋኔ ሞቴል
307,Cap Malheureux,MU,77.47,scattered clouds,-19.9842,57.6142,Pereybere Hotel & Spa
310,Sena Madureira,BR,72.81,overcast clouds,-9.0656,-68.6569,Hotel Central
312,Zunyi,CN,60.62,overcast clouds,27.6867,106.9072,Bishiluo Hostel
313,Warwick,US,51.06,clear sky,41.7001,-71.4162,Hampton Inn & Suites Providence/Warwick-Airport
314,Kavadarci,MK,50.32,clear sky,41.4331,22.0119,Hotel Feni
315,Ust-Uda,RU,45.73,broken clouds,54.1742,103.0304,Gostinitsa Ust'-Uda Shans
316,Pacific Grove,US,53.71,clear sky,36.6177,-121.9166,Lovers Point Inn
317,Gushikawa,JP,80.19,light intensity drizzle,26.3544,127.8686,Kirari Guest House
318,Yaan,NG,74.91,overcast clouds,7.3833,8.5667,
319,Bottrop,DE,62.71,overcast clouds,51.5167,6.9167,Ramada By Wyndham Bottrop
320,Redlands,US,60.46,clear sky,34.0556,-117.1825,Dynasty Suites Redlands
322,Farafangana,MG,67.32,clear sky,-22.8167,47.8333,Miarina
324,Dauphin,CA,46.54,clear sky,51.1494,-100.0502,Canway Inn & Suites
325,Yulara,AU,67.84,overcast clouds,-25.2406,130.9889,Desert Gardens Hotel - Ayers Rock Resort
326,Nabire,ID,85.96,light rain,-3.3667,135.4833,Hotel Nusantara I
327,Hegang,CN,59.79,overcast clouds,47.4,130.3667,
328,Qandala,SO,82.87,clear sky,11.472,49.8728,
329,Sambava,MG,72.64,light rain,-14.2667,50.1667,Melrose
330,Saint-Augustin,CA,45.18,scattered clouds,51.226,-58.6502,
331,Montrose,US,58.57,few clouds,38.4166,-108.2673,
332,Ambanja,MG,71.53,few clouds,-13.6833,48.45,Hotel Salama and Fast Food
333,Tatawin,TN,57.6,clear sky,32.9297,10.4518,Sangho Privilege Tataouine
334,Badou,TG,74.53,light rain,7.5833,0.6,Hôtel Abuta
335,Kirakira,SB,84.27,overcast clouds,-10.4544,161.9205,SanBiz Lodge
336,Salalah,OM,78.89,clear sky,17.0151,54.0924,"HAMDAN PLAZA HOTEL SALALAH, an HTG Hotel"
337,Sioux Lookout,CA,53.67,few clouds,50.1001,-91.917,Knobby's Fly-In Camps
338,Mora,CM,88.79,overcast clouds,11.0461,14.1401,Hotel Emergence
339,Catuday,PH,84.49,scattered clouds,16.2923,119.8062,Benjie's Kubo & Cottages
340,Cuenca,EC,55.53,overcast clouds,-2.8833,-78.9833,Hotel Cuenca
341,Ucluelet,CA,50.09,overcast clouds,48.9329,-125.5528,Black Rock Oceanfront Resort
344,Paks,HU,55.27,few clouds,46.6265,18.8596,Duna Hotel
345,Makungu,TZ,57.65,few clouds,-8.7333,35.2833,Complex
346,Broken Hill,AU,56.46,overcast clouds,-31.95,141.4333,Royal Exchange Hotel
347,Shingu,JP,63.77,light rain,33.7333,135.9833,Shingu UI Hotel
348,Diego De Almagro,CL,59.95,clear sky,-26.3667,-70.05,hotel luna del desierto
349,Lompoc,US,53.02,haze,34.6391,-120.4579,"Holiday Inn Express Lompoc, an IHG Hotel"
350,Santa Cruz Cabralia,BR,70.03,few clouds,-16.2781,-39.0247,Puerto Princesa Inn
351,Sola,VU,81.27,overcast clouds,-13.8833,167.55,Leumerus Bungalows
352,Salsomaggiore Terme,IT,61.92,clear sky,44.8148,9.9796,Hotel Ferrari
353,Dunhua,CN,50.86,overcast clouds,43.3725,128.2425,Jinhao International Business Hotel
354,Biak,ID,79.3,overcast clouds,-0.9131,122.8766,Penginapan Kim
355,Coos Bay,US,51.93,scattered clouds,43.3665,-124.2179,Best Western Holiday Hotel
356,Northam,GB,52.61,moderate rain,51.0333,-4.2167,Durrant House Hotel
357,Cairns,AU,80.55,broken clouds,-16.9167,145.7667,Mantra Trilogy Cairns
358,Singaparna,ID,85.66,scattered clouds,-7.3515,108.111,Wisma Dewi Hotel
359,Wanning,CN,85.68,overcast clouds,18.8003,110.3967,Paradise Hotel
361,Alice Springs,AU,69.35,clear sky,-23.7,133.8833,Desert Palms Alice Springs
362,Ballina,AU,66.38,moderate rain,-28.8667,153.5667,Ramada Hotel & Suites by Wyndham Ballina Byron
364,Thompson,CA,50.16,overcast clouds,55.7435,-97.8558,Burntwood Hotel
365,Katobu,ID,85.78,overcast clouds,-4.9408,122.5276,La Ode Husein
366,North Platte,US,67.12,clear sky,41.1239,-100.7654,"Holiday Inn Express & Suites North Platte, an IHG Hotel"
367,Jinchang,CN,67.28,scattered clouds,38.4953,102.1739,Mingshihui Jinchang International Hotel
368,Yumen,CN,73.02,scattered clouds,40.2833,97.2,
369,Kasese,UG,66.43,broken clouds,0.1833,30.0833,Sandton Hotel Kasese
371,Saldanha,ZA,55.45,broken clouds,-33.0117,17.9442,Blue Bay Lodge
372,Santiago,CL,70.99,overcast clouds,-33.4569,-70.6483,Hotel Panamericano
373,Paita,PE,66.04,few clouds,-5.0892,-81.1144,Hotel Náutico de Paita
374,Nan,TH,80.62,few clouds,18.8333,100.6667,สะเนียน2
377,Argelia,CO,66.74,moderate rain,2.2556,-77.2488,Hotel San Fernando Argelia
379,Dale,US,77.18,overcast clouds,38.1689,-86.99,"Motel 6 Dale, IN"
381,Mackay,AU,73.69,light rain,-21.15,149.2,International Lodge Motel
382,Houma,US,75.0,clear sky,29.5958,-90.7195,Courtyard by Marriott Houma
383,Chicama,PE,61.34,clear sky,-7.8447,-79.1469,Balihai Bungalows
384,Alekseyevsk,RU,47.1,broken clouds,57.8406,108.3492,
385,Thibodaux,US,75.18,clear sky,29.7958,-90.8229,Hampton Inn & Suites Thibodaux
386,San Juan De Colon,VE,69.39,overcast clouds,8.0313,-72.2605,Hotel San Francisco de Padua C.A
387,Lata,PT,51.98,clear sky,40.1629,-8.3327,Casa Maquia
388,Sao Joao Da Barra,BR,68.25,clear sky,-21.6403,-41.0511,Pousada Porto De Canoas
389,Morgan Hill,US,53.33,clear sky,37.1305,-121.6544,Residence Inn by Marriott San Jose South/Morgan Hill
391,Pierre,US,63.86,clear sky,44.3683,-100.351,Ramkota Hotel
392,Kalmunai,LK,84.88,broken clouds,7.4167,81.8167,VS Villa
394,Foumban,CM,63.88,overcast clouds,5.7291,10.9001,Hotel Pekassa De Karche
395,Dixon,US,54.99,clear sky,38.4455,-121.8233,Best Western Plus Dixon Davis
396,Gopalpur,IN,84.76,broken clouds,19.2667,84.9167,Gopalpur Palm Resort
397,Torata,PE,57.45,clear sky,-17.0769,-70.8433,Lodging Sra. Tina Vera
398,Gornopravdinsk,RU,58.55,overcast clouds,60.05,69.9,Hostel
399,Burnie,AU,60.1,overcast clouds,-41.0667,145.9167,Beachfront Voyager Motor Inn
400,Adrar,MR,82.8,few clouds,20.5022,-10.0711,
401,Taywarah,AF,56.5,clear sky,33.35,64.4167,
402,Shimoda,JP,68.36,overcast clouds,34.6667,138.95,Shimoda Tokyu Hotel
404,Kahului,US,80.62,scattered clouds,20.8947,-156.47,Maui Seaside Hotel
405,Mont-Joli,CA,56.7,clear sky,48.5839,-68.1921,Mon Joli Motel
407,Keti Bandar,PK,84.13,clear sky,24.1447,67.4497,Haji laloo memon house
408,Marsh Harbour,BS,73.35,overcast clouds,26.5412,-77.0636,Abaco Beach Resort
409,Kadoma,JP,75.18,broken clouds,34.7333,135.5833,Hotel Agora Osaka Moriguchi
410,Tiarei,PF,84.22,scattered clouds,-17.5333,-149.3333,Le Rocher de Tahiti
411,Kuah,MY,78.78,scattered clouds,6.3265,99.8432,Azio Hotel
412,Viedma,AR,49.3,clear sky,-40.8135,-62.9967,Hotel Cristal
413,Ranong,TH,85.93,overcast clouds,9.9658,98.6348,Tinidee Hotel@Ranong
414,Mayo,US,61.39,clear sky,38.8876,-76.5119,Resorts Resource Group International
415,Coahuayana,MX,73.87,broken clouds,18.7333,-103.6833,El rranchito michuacan de ocampos
416,Usevya,TZ,68.45,overcast clouds,-7.1,31.2333,
418,Chupa,RU,45.41,overcast clouds,66.27,33.0549,Hostel on Pionerskaya 88
421,Cimitarra,CO,76.39,overcast clouds,6.3142,-73.9497,HOTEL CARARE PLAZA
422,Ribeira Grande,PT,60.01,overcast clouds,38.5167,-28.7,Quinta da Meia Eira
423,Sayyan,YE,61.14,clear sky,15.1718,44.3244,ملاطف ابوحورية
424,Mitsamiouli,KM,73.69,few clouds,-11.3847,43.2844,Foyer ADM
425,Acapulco,MX,80.42,scattered clouds,16.8634,-99.8901,HS Hotsson Smart Acapulco
426,Laguna,US,55.9,clear sky,38.421,-121.4238,"Holiday Inn Express & Suites Elk Grove Central - Hwy 99, an IHG Hotel"
427,Sakaiminato,JP,73.38,broken clouds,35.55,133.2333,Italian pasley
428,Venice,US,73.99,clear sky,27.0998,-82.4543,A Beach Retreat On Casey Key
429,Karratha,AU,79.63,scattered clouds,-20.7377,116.8463,ibis Styles Karratha
430,Abu Dhabi,AE,81.97,clear sky,24.4667,54.3667,Beach Rotana
432,Lima,PE,61.9,clear sky,-12.0432,-77.0282,Hotel Kamana
433,Kirkland Lake,CA,68.29,scattered clouds,48.1446,-80.0377,Comfort Inn
435,Qobustan,AZ,54.43,moderate rain,40.0824,49.412,
436,Moramanga,MG,54.73,clear sky,-18.9333,48.2,Espace VANILLA
437,Lashio,MM,68.38,overcast clouds,22.9333,97.75,Hotel CF Lashio - Burmese Only
439,Romeoville,US,84.15,overcast clouds,41.6475,-88.0895,"Country Inn & Suites by Radisson, Romeoville, IL"
440,Ahuimanu,US,80.31,broken clouds,21.4447,-157.8378,Paradise Bay Resort
441,Bani Walid,LY,58.64,overcast clouds,31.7566,13.9942,منزل مفتاح محمد الزلبي
442,Bushehr,IR,77.09,clear sky,28.9684,50.8385,Yas Hotel
443,Barranca,PE,63.63,clear sky,-10.75,-77.7667,El Olivar Hospedaje
444,Lorengau,PG,86.16,overcast clouds,-2.0226,147.2712,Lorengau Harbourside Hotel
445,Gimli,CA,55.42,clear sky,50.6336,-96.9907,Lakeview Gimli Resort
446,Taybad,IR,64.67,clear sky,34.74,60.7756,لی پوش jean center
447,Wanaka,NZ,55.94,clear sky,-44.7,169.15,Wanaka Homestead Lodge and Cottages
448,Visby,SE,52.02,broken clouds,57.6409,18.296,Best Western Solhem Hotel Visby
449,Umm Lajj,SA,79.86,broken clouds,25.0213,37.2685,Moon light Furnished Units
451,Bubaque,GW,77.34,overcast clouds,11.2833,-15.8333,"Casa Dora, Bubaque"
452,Cayenne,GF,82.09,broken clouds,4.9333,-52.3333,Hôtel Le Dronmi
453,Portland,US,57.15,few clouds,45.5234,-122.6762,Embassy Suites by Hilton Portland Downtown
454,George,ZA,58.55,broken clouds,-33.963,22.4617,Protea Hotel by Marriott George King George
455,Madimba,TZ,73.02,scattered clouds,-10.4,40.3333,
456,Dong Hoi,VN,87.28,overcast clouds,17.4833,106.6,Nam Long Hotel
458,Los Llanos De Aridane,ES,64.15,broken clouds,28.6585,-17.9182,Valle Aridane
459,Tura,IN,74.17,overcast clouds,25.5198,90.2201,Hotel RIKMAN Continental
460,Russell,US,69.4,clear sky,32.3502,-85.1999,Macs
461,Pimentel,PE,64.15,few clouds,-6.8367,-79.9342,Hotel Puerto del Sol
463,Timberlake,US,55.42,few clouds,37.3207,-79.2575,Timberlake Motel
464,Abalak,RU,56.86,overcast clouds,58.1286,68.5944,Туристический комплекс Абалак
465,Makokou,GA,71.04,overcast clouds,0.5738,12.8642,Hôtel
466,Cabo San Lucas,MX,80.62,clear sky,22.8909,-109.9124,Hotel Tesoro Los Cabos
468,Nago,JP,81.03,overcast clouds,26.5881,127.9761,Hotel Yugaf Inn Okinawa
469,Palora,EC,65.73,light rain,-1.7,-77.9333,Rancho grande
471,Port Hedland,AU,82.45,few clouds,-20.3167,118.5667,The Esplanade Hotel
472,Alanya,TR,55.53,clear sky,36.5438,31.9998,Panorama Hotel
474,Wajima,JP,74.08,broken clouds,37.4,136.9,Wajiima Onsen Yashio
475,Kerouane,GN,72.68,overcast clouds,9.2667,-9.0167,Hotel Seka Seka
477,Kieta,PG,85.28,scattered clouds,-6.2167,155.6333,Uruna Bay Retreat
478,Sao Filipe,CV,72.19,few clouds,14.8961,-24.4956,Hotel Xaguate
479,Kelso,US,55.36,clear sky,46.1468,-122.9084,GuestHouse Kelso Longview
480,Songjianghe,CN,50.58,overcast clouds,42.1859,127.479,Sijisheng Fashion Guest House
481,Bilma,NE,85.95,broken clouds,18.6853,12.9164,Expeditions Ténére voyages
483,Wlingi,ID,85.66,broken clouds,-8.0776,112.3311,SPOT ON 1847 Hotel Maya
484,Nishihara,JP,80.26,light intensity drizzle,26.1842,127.7558,Minshuku Agaihama
485,Abu Kamal,SY,68.65,clear sky,34.4506,40.9171,البوكمال
486,Vao,NC,73.56,scattered clouds,-22.6667,167.4833,Hotel Kou-Bugny
487,Adra,ES,65.37,clear sky,36.7496,-3.0206,Hostal Zapata
488,Margate,GB,52.7,broken clouds,51.3813,1.3862,Premier Inn Margate hotel
489,Kodinsk,RU,48.92,overcast clouds,58.6881,99.1844,
490,Barcelona,ES,64.9,clear sky,41.3888,2.159,Axel Hotel Barcelona
491,Aneho,TG,80.8,broken clouds,6.2333,1.6,Hotel La Linette
495,Inongo,CD,71.55,light rain,-1.95,18.2667,Hotel Du Lac
496,Lufilufi,WS,89.38,broken clouds,-13.8745,-171.5986,Leuaina Beach Resort and Spa
497,Pisco,PE,61.02,clear sky,-13.7,-76.2167,Hotel San Isidro Oficial
499,San Rafael,AR,56.93,overcast clouds,-34.6177,-68.3301,Hotel San Rafael
500,San Jeronimo,PE,49.96,broken clouds,-11.9472,-75.2829,Tuki Llajta Pueblo Bonito Eco Lodge
501,Merrill,US,69.75,scattered clouds,45.1805,-89.6835,Prairie Motel
502,Samma,JO,51.24,scattered clouds,32.571,35.6903,وصفي الشوالي ابو مراد
503,Rafaela,AR,56.98,clear sky,-31.2503,-61.4867,Parra Hotel & Suites
504,Gilgit,PK,74.5,clear sky,35.9221,74.3087,Tourist Hamlet Gilgit
505,The Valley,AI,81.1,overcast clouds,18.217,-63.0578,CeBlue Villas & Beach Resort
509,Bambui,BR,59.29,broken clouds,-20.0064,-45.9769,Paulinelli Palace Hotel
510,Nichinan,JP,67.68,moderate rain,31.6,131.3667,Guest House Aki
511,Kainantu,PG,79.65,broken clouds,-6.2887,145.8655,Sylvester buku
512,Hobyo,SO,81.91,overcast clouds,5.3505,48.5268,Iftin hotel hobyo
513,Kibala,TD,84.15,thunderstorm,9.1104,18.3463,hotel safari
514,Gohpur,IN,76.19,overcast clouds,26.8833,93.6333,Murchana Music
515,Isangel,VU,82.51,scattered clouds,-19.55,169.2667,Tanna Lodge
517,Sawtell,AU,66.22,light intensity shower rain,-30.3833,153.1,The Bungalow Sawtell
518,Tessalit,ML,80.02,clear sky,20.1986,1.0114,
519,Mount Isa,AU,73.17,overcast clouds,-20.7333,139.5,ibis Styles Mt Isa Verona
521,Nakambala,ZM,60.04,clear sky,-15.8324,27.7799,Staff Area
523,Venado Tuerto,AR,58.77,clear sky,-33.7456,-61.9688,La Bianca.
524,Nhulunbuy,AU,79.41,shower rain,-12.2333,136.7667,East Arnhem Real Estate
525,Lachute,CA,61.45,broken clouds,45.6501,-74.3325,Hotel Laurentien
526,Ulverstone,AU,60.39,overcast clouds,-41.15,146.1667,Westella Colonial Bed & Breakfast
528,Waipawa,NZ,50.92,overcast clouds,-41.4122,175.5153,Tora Coastal Walk
529,Kambove,CD,56.91,clear sky,-10.8764,26.5969,Couvant des soeurs catholiques
530,Ndele,CF,77.5,overcast clouds,8.4109,20.6473,
531,Cururupu,BR,72.9,overcast clouds,-1.8283,-44.8683,POUSADA TRAVÉS'CIA
532,Les Cayes,HT,75.96,clear sky,18.2,-73.75,Villa Orphee
535,Muravlenko,RU,49.53,overcast clouds,63.7898,74.523,Hostel Rus Muravlenko
536,Cockburn Town,TC,79.23,broken clouds,21.4612,-71.1419,Osprey Beach Hotel
537,Luwuk,ID,82.83,overcast clouds,-0.9516,122.7875,Hotel Santika Luwuk
538,Chibombo,ZM,58.86,clear sky,-14.6569,28.0706,Chibombo District Council Guest House
539,Bay City,US,75.31,overcast clouds,43.5945,-83.8889,DoubleTree by Hilton Hotel Bay City - Riverfront
540,Muskegon,US,80.46,broken clouds,43.3,-86.1334,Timberline Estates
541,Polovinnoye,RU,54.32,overcast clouds,54.7914,65.9864,
542,Great Yarmouth,GB,56.01,overcast clouds,52.6083,1.7305,Comfort Hotel Great Yarmouth
543,Bafq,IR,72.97,clear sky,31.6128,55.4107,Alamdar Hotel
544,Nioro,GM,76.55,few clouds,13.35,-15.75,
545,Jacmel,HT,80.44,scattered clouds,18.2342,-72.5347,Historic Hotel Florita
546,Joshimath,IN,71.71,clear sky,30.5667,79.5667,Shivalik Camps & Resort
547,Tisovec,SK,54.23,overcast clouds,48.6774,19.9436,Cottage Elisabeth
551,Khunti,IN,82.51,overcast clouds,23.0833,85.2833,Mohan sharma house
552,Constitucion,CL,56.5,overcast clouds,-35.3333,-72.4167,Hotel Boutique Las Azucenas
553,Nemuro,JP,48.16,clear sky,43.3236,145.575,Hotel Nemuro Kaiyoutei
554,Mtambile,TZ,79.68,clear sky,-5.3833,39.7,
555,Dingle,PH,88.86,overcast clouds,10.9995,122.6711,SEGAYA PROPERTY
556,Kosonsoy,UZ,63.16,broken clouds,41.2561,71.5508,"Гостиница ""Goldstar'"
557,Mahajanga,MG,69.82,clear sky,-15.7167,46.3167,Restaurant Greedy Coco Lodge Majunga
558,La Asuncion,VE,77.81,scattered clouds,11.0333,-63.8628,Colinas de Matasiete
559,Cabedelo,BR,75.87,broken clouds,-6.9811,-34.8339,Hotel Pigalle
560,Waunakee,US,78.58,scattered clouds,43.1919,-89.4557,Hometown Inn & Suites
561,Nenagh,IE,49.55,broken clouds,52.8619,-8.1967,Abbey Court
562,Mafinga,TZ,63.16,clear sky,-7.25,35.0667,
563,Bam,IR,81.21,clear sky,29.106,58.357,Bam Tourist Hotel
564,Chumphon,TH,83.75,overcast clouds,10.3333,98.8333,สกาน จ๋า.
565,Noyabrsk,RU,52.32,overcast clouds,63.1994,75.4507,Hotel Uyutnaya
566,Tiznit,MA,71.53,broken clouds,29.5833,-9.5,
567,Tucuman,AR,68.0,overcast clouds,-26.8241,-65.2226,Dallas Hotel Tucuman
568,Tigil,RU,52.2,clear sky,57.8,158.6667,Tigil'
569,Beitbridge,ZW,61.63,clear sky,-22.2167,30.0,Beitbridge Express Hotel
570,Kashi,CN,83.41,few clouds,39.4547,75.9797,帕米尔青年旅舍
571,Meulaboh,ID,83.75,overcast clouds,4.1363,96.1285,Kost Pria
572,Imbituba,BR,68.86,overcast clouds,-28.24,-48.6703,Praia Hotel Imbituba
573,Pecos,US,81.43,clear sky,31.4229,-103.4932,Knights Inn & Suites Pecos Northeast
576,Kedrovyy,RU,46.87,clear sky,56.1667,91.8167,
577,Agadez,NE,84.04,broken clouds,19.75,10.25,
578,Akcaabat,TR,51.67,clear sky,41.0212,39.5715,AKOF APART
579,Bail Hongal,IN,78.04,overcast clouds,15.8167,74.8667,Sangam residency (Lodge)
580,Kathu,TH,86.76,overcast clouds,7.9178,98.3332,Novotel Phuket Resort
581,Longford,IE,48.33,broken clouds,53.7333,-7.8,Westhouse Cafe
582,Kisangani,CD,70.47,overcast clouds,0.5167,25.2,Grand Ramela Hotel
583,Svetlaya,RU,55.72,overcast clouds,46.5389,138.3297,
584,Hamilton,US,74.98,clear sky,39.1834,-84.5333,Six Acres Bed & Breakfast
586,San Bartolome De Tirajana,ES,63.07,few clouds,27.9248,-15.5733,Las Tirajanas
587,Shunyi,CN,67.95,clear sky,40.125,116.6453,Beijing Mingchen Holiday Hotel
588,Xichang,CN,69.62,overcast clouds,27.8964,102.2634,Xichang ibis Hotel
589,Camana,PE,65.08,clear sky,-16.6228,-72.7111,Hostal Morales
590,Hokitika,NZ,58.75,clear sky,-42.7167,170.9667,Beachfront Hotel Hokitika
591,Honiara,SB,84.87,moderate rain,-9.4333,159.95,Heritage Park Hotel
592,Hutchinson,US,82.35,clear sky,38.0608,-97.9298,Hampton Inn Hutchinson
593,Gisborne,NZ,55.49,broken clouds,-38.6533,178.0042,ASURE Alfresco Motor Lodge
594,Amahai,ID,83.77,broken clouds,-3.3333,128.9167,HOTEL ISABELA
595,Feijo,BR,72.7,overcast clouds,-8.1642,-70.3536,Hotel e Restaurante Aҫai
596,Rahuri,IN,89.69,broken clouds,19.3833,74.65,P.W.D RESTHOUSE
597,Ukiah,US,51.37,few clouds,39.1502,-123.2078,Hampton Inn Ukiah
598,Berdavan,AM,47.05,overcast clouds,41.205,44.9997,Holiday in Berdavan
599,George Town,MY,85.93,few clouds,5.4112,100.3354,Cititel Penang
600,Waddan,LY,62.83,few clouds,29.1614,16.139,محل الشريف محمد العايب
602,Bentiu,SS,82.2,overcast clouds,9.2333,29.8333,Mandela hôtel
604,Puerto Leguizamo,CO,71.92,broken clouds,-0.1934,-74.7819,la casona de juancho
605,Libertador General San Martin,AR,56.97,clear sky,-23.8064,-64.7876,Posada del Sol
606,Mercedes,AR,53.78,clear sky,-34.6515,-59.4307,Posada del Inti Centro
607,Wallaceburg,CA,66.22,few clouds,42.593,-82.3885,Wallaceburg Inn
608,Blue Springs,US,79.75,clear sky,39.0169,-94.2816,Courtyard by Marriott Kansas City East/Blue Springs
609,Marzuq,YE,78.42,clear sky,14.4,46.4667,
610,Gazli,UZ,72.19,broken clouds,40.1333,63.45,
612,Maarianhamina,AX,46.26,few clouds,60.0973,19.9348,Park Alandia Hotel
613,Winslow,US,68.18,clear sky,35.0242,-110.6974,Best Western Plus Winslow Inn
614,Uribia,CO,81.55,overcast clouds,11.7139,-72.266,Hotel Uribia
615,Lamar,US,78.71,clear sky,33.6668,-95.5836,Kings Inn Paris TX
616,Ojinaga,MX,86.95,clear sky,29.5667,-104.4167,Suites Las Palmas
617,Sakakah,SA,67.57,clear sky,29.9697,40.2064,Fakhamat Al Orjoana Apartment
618,Padang,ID,84.25,overcast clouds,-0.9492,100.3543,Mercure Padang
619,Toccoa,US,65.77,clear sky,34.5773,-83.3324,Quality Inn
620,Uarini,BR,73.08,scattered clouds,-2.99,-65.1083,
621,Danville,US,55.96,clear sky,36.586,-79.395,"Holiday Inn Express Danville, an IHG Hotel"
623,Victor Harbor,AU,64.69,scattered clouds,-35.5667,138.6167,McCracken Country Club
625,Palauig,PH,86.2,scattered clouds,15.435,119.9045,Alperi Botique Resort
626,Coruripe,BR,74.82,broken clouds,-10.1256,-36.1756,Pousada e Hotel Litoral Sul
627,Bafata,GW,77.97,broken clouds,12.1667,-14.75,
628,Hua Hin,TH,86.02,few clouds,12.5707,99.9588,"InterContinental Hua Hin Resort, an IHG Hotel"
629,Jinxiang,CN,68.23,overcast clouds,27.4327,120.6062,Wolong Village
630,Fremont,US,54.09,clear sky,37.5483,-121.9886,Best Western Plus Garden Court Inn
631,Acajutla,SV,82.18,scattered clouds,13.5928,-89.8275,Laureles
632,Belaya,UA,49.82,overcast clouds,49.029,25.7706,Hotel Anastasia
633,Kyshtovka,RU,58.75,overcast clouds,56.555,76.6271,Uyutnaya Mini-Hotel
635,Piedras Negras,MX,87.28,light rain,28.7,-100.5167,"Holiday Inn Express & Suites Eagle Pass, an IHG Hotel"
636,Osypenko,UA,48.65,scattered clouds,46.9136,36.8253,
637,Barraute,CA,70.07,clear sky,48.4335,-77.6328,Auberge La Fille d'à côté
638,Sassandra,CI,78.21,overcast clouds,4.95,-6.0833,la terrasse
639,Ponta Delgada,PT,64.51,few clouds,37.7333,-25.6667,Vila Nova Hotel
640,Torbat-E Jam,IR,65.01,clear sky,35.244,60.6225,White building
641,Sibolga,ID,86.07,overcast clouds,1.7427,98.7792,Hotel Syariah CN Darussalam
642,Shizuishan,CN,62.73,broken clouds,39.2333,106.7694,Xingji Hotel
643,Kupang,ID,85.98,clear sky,-10.1667,123.5833,Hotel On The Rock by Prasanthi
644,Nova Vicosa,BR,72.27,broken clouds,-17.8919,-39.3719,Pousada Porto do Sol
645,Amapa,BR,70.52,overcast clouds,1.0,-52.0,
646,Lichtenburg,ZA,50.79,broken clouds,-26.152,26.1597,Kennzy Guest House
647,Kenora,CA,54.57,few clouds,49.8167,-94.4337,Maynard Lake Lodge
648,Todos Santos,MX,65.66,clear sky,23.45,-110.2167,Hotel California Todos Santos
649,Magburaka,SL,75.58,broken clouds,8.7167,-11.95,PROF LAKOH
650,Sandy Bay,AU,61.3,clear sky,-42.913,147.3532,St Ives Hobart Accommodation Tasmania
651,Port Shepstone,ZA,63.88,overcast clouds,-30.7414,30.455,My Den Beachfront Bed and Breakfast | Self-Catering
652,Maceio,BR,76.44,broken clouds,-9.6658,-35.7353,Hotel Ponta Verde Maceió
653,Beruwala,LK,84.31,overcast clouds,6.4788,79.9828,The Palms Hotel
655,Manoel Urbano,BR,72.34,overcast clouds,-8.8389,-69.2597,Baixada Beira Rio
658,Cheremukhovo,RU,50.79,overcast clouds,60.3484,59.9851,
659,Lyuban,BY,45.37,scattered clouds,52.7985,28.0048,"Gostinitsa ""Oressa"""
660,Broome,US,54.37,clear sky,42.2506,-75.833,Chenango Valley State Park
661,Kampot,KH,87.85,overcast clouds,10.6167,104.1833,Two Moons Hotel
662,Ingham,US,73.02,overcast clouds,42.6,-84.3833,Sunset Mobile Home Park
664,Miri,MY,87.94,scattered clouds,4.4148,114.0089,"Mega Hotel, Miri"
665,Progress,US,56.98,clear sky,40.2851,-76.8314,Hilton Garden Inn Harrisburg East
666,Abha,SA,69.62,clear sky,18.2164,42.5053,Abha Hotel
667,Capitao Poco,BR,71.65,overcast clouds,-1.7464,-47.0594,Hotel New Tokyo
668,Shahrud,IR,60.8,few clouds,36.4182,54.9763,Royal Hotel
669,Ivdel,RU,54.14,overcast clouds,60.6911,60.4206,Ivdel'
670,Mirabad,AF,78.12,clear sky,30.4362,61.8383,
671,Prosec,CZ,58.05,overcast clouds,49.8059,16.1162,Dum Bratri Capku
672,Kloulklubed,PW,79.3,heavy intensity rain,7.0419,134.2556,Storyboard Beach Resort
674,Siocon,PH,80.62,overcast clouds,7.7061,122.1353,ABS Hotel
676,Machilipatnam,IN,82.83,heavy intensity rain,16.1667,81.1333,R&B Bungalow
677,Marrakesh,MA,71.67,clear sky,31.6315,-8.0083,Les Jardins de La Koutoubia
678,Vienna,AT,58.6,clear sky,48.2085,16.3721,Hotel Royal
679,Agadir,MA,59.45,overcast clouds,30.4202,-9.5982,Iberostar Founty Beach
680,Quang Ngai,VN,89.26,overcast clouds,15.1167,108.8,Central Hotel
681,Paraiso,CR,66.42,overcast clouds,9.8383,-83.8656,Hotel Rinconcito Verde
682,Baft,IR,68.16,clear sky,29.234,56.6057,Paeez Hotel & restaurant
684,Alad,PH,83.46,overcast clouds,12.6168,122.2475,Sunset Cove Beach & Dive Resort
685,Marang,MY,84.11,broken clouds,5.2056,103.2059,DBarakah Homestay
686,Severnoye,RU,56.26,overcast clouds,56.3491,78.3619,Gostinitsa Severyanka
690,Port-Gentil,GA,80.15,moderate rain,-0.7193,8.7815,Fengshui Residence
691,Tongliao,CN,62.02,scattered clouds,43.6125,122.2653,Meirujia Hotel
